X,Y,OBJECTID,INDEX_NO,REGION_NO,PORT_NAME,COUNTRY,LATITUDE,LONGITUDE,LAT_DEG,LAT_MIN,LAT_HEMI,LONG_DEG,LONG_MIN,LONG_HEMI,PUB,CHART,HARBORSIZE,HARBORTYPE,SHELTER,ENTRY_TIDE,ENTRYSWELL,ENTRY_ICE,ENTRYOTHER,OVERHD_LIM,CHAN_DEPTH,ANCH_DEPTH,CARGODEPTH,OIL_DEPTH,TIDE_RANGE,MAX_VESSEL,HOLDGROUND,TURN_BASIN,PORTOFENTR,US_REP,ETAMESSAGE,PILOT_REQD,PILOTAVAIL,LOC_ASSIST,PILOTADVSD,TUGSALVAGE,TUG_ASSIST,PRATIQUE,SSCC_CERT,QUAR_OTHER,COMM_PHONE,COMM_FAX,COMM_RADIO,COMM_VHF,COMM_AIR,COMM_RAIL,CARGOWHARF,CARGO_ANCH,CARGMDMOOR,CARBCHMOOR,CARICEMOOR,MED_FACIL,GARBAGE,DEGAUSS,DRTYBALLST,CRANEFIXED,CRANEMOBIL,CRANEFLOAT,LIFT_100_,LIFT50_100,LIFT_25_49,LIFT_0_24,LONGSHORE,ELECTRICAL,SERV_STEAM,NAV_EQUIP,ELECREPAIR,PROVISIONS,WATER,FUEL_OIL,DIESEL,DECKSUPPLY,ENG_SUPPLY,REPAIRCODE,DRYDOCK,RAILWAY
-90.833333333,30.016666667,1,8895,8650,CONVENT,US,30.016667,-90.833333,30,1,N,90,50,W,CP05,11352,S,RN,F, , , ,Y, , , , ,J,0,M, , , , ,Y,Y,Y,Y, ,Y, , ,Y, ,Y, , , ,Y,Y,Y, , , , , , , , , , , , , , , ,Y, , , , , , , , , , , , , 
-95.333333333,29.7500000000001,2,9235,8650,DEER PARK,US,29.75,-95.333333,29,45,N,95,20,W,CP05,11325,V,RN,G, , , ,Y,Y,G,K, ,L,0,L, ,Y, , ,Y,Y, , ,Y, ,Y, , , ,Y, ,Y,Y, , , , , , , ,Y, , , , , , , , , , ,Y, , , , , , , , , , , , ,S
-34.966666667,-8.39999999999998,3,12740,12700,PORTO DE SUAPE,BR,-8.4,-34.966667,8,24,S,34,58,W,124,24222,S,CB,G,Y,Y,N,Y,Y,G,G,K,G,2,L,Y,Y,Y,Y,Y,Y,Y, , , ,Y,Y, ,Y, , ,Y, ,Y,Y,Y,Y,Y, , ,Y,Y, ,Y, , , , , , , ,Y, , , , , ,Y,Y,Y, , ,N,L,S
32.3666666670001,29.583333333,4,48055,47950,AIN SUKHNA TERMINAL,EG,29.583333,32.366667,29,35,N,32,22,E,172,62195/4,L,OR,F, , , ,Y, , ,A, ,A,2,L,Y,Y, , ,Y,Y,Y,Y,Y,Y,Y, ,Y,Y,Y,Y,Y,Y,Y, ,Y,Y,Y, , ,Y, , ,Y, , , , , , , , , , , , ,Y,N,Y,Y, , ,N, , 
38.216666667,23.95,5,48121,48100,KING FAHD PORT,SA,23.95,38.216667,23,57,N,38,13,E,172,62172,V,CB,P,N,N,N,Y, ,G, ,F,A,1,M, ,Y,Y,Y,Y,Y,Y, ,Y,Y,Y,Y,Y, ,Y, ,Y,Y,N, ,Y,Y,Y, , ,Y,Y, ,Y,Y, , , , ,Y, , , , ,Y,Y,Y,Y,Y,Y,Y, ,C, , 
42.6000000000001,15.1333333330001,6,48155,48143,RAS ISA MARINE TERMINAL,YE,15.133333,42.6,15,8,N,42,36,E,172,62292,L, , , , , ,Y,Y, ,A, ,J,3,M,Y,Y, , ,Y,Y,Y,Y,Y, ,Y, ,Y, ,Y,Y,Y,Y, , , ,Y,Y, , ,Y,N,N,N,Y, , , , , ,Y,N,N,N, ,N,N,N, ,Y,N, ,N, , 
113.866666667,22.466666667,7,57777,57740,SHEKOU,CN,22.466667,113.866667,22,28,N,113,52,E,161,93721,M,CN,G,Y,N,N,Y, ,H,H,F,J,1,M,Y,Y,Y,N,Y,Y,Y, , ,Y,Y,Y, ,Y,Y,Y,Y, ,Y,Y,Y, , , , ,Y,Y, , ,Y,Y,Y, , ,Y,Y,Y,Y,Y,Y,Y,Y,Y,Y,Y,Y, ,C, ,S
107.716666667,-5.88333333299994,8,50340,50020,ARDJUNA OIL FIELD,ID,-5.883333,107.716667,5,53,S,107,43,E,163,71018,V,OR,P, , , ,Y, ,B,K, ,B,0,M, , ,Y, ,Y,Y,Y,Y,Y,Y,Y,Y,Y, , , ,Y,Y,Y,Y,Y,Y, , , ,N, , ,N, , , , , , , ,Y, , , , ,N,N,N,N, , ,N, , 
122.083333333,40.3000000000001,9,60230,59850,BAYUQUAN,CN,40.3,122.083333,40,18,N,122,5,E,157,94380,V,OR,F,Y, ,Y, , ,G,J,J,J,8,M, ,Y,N, ,Y,Y,Y, , , ,Y,Y, ,Y, , ,Y, , ,Y,Y, , , , , , , , , , , , , , , ,Y, , , , , , , , , , , , ,S
71.516666667,20.9166666670001,10,48730,48610,PIPAVAV BANDAR,IN,20.916667,71.516667,20,55,N,71,31,E,173,63080,S,CN,G,Y,N,N,Y,N,G,L,G,H,3,L,Y,Y,Y, ,Y,Y,Y,Y,Y, ,Y,Y, ,Y,Y,Y, ,Y,Y,Y,Y, , , , ,Y,Y, ,N,Y,Y, ,Y,Y,Y,Y,Y, , , , ,Y,Y,Y, , , ,N,L,L
120.266666667,14.8000000000001,11,58395,57960,SUBIC BAY,PH,14.8,120.266667,14,48,N,120,16,E,162,91286,M,CN,E,Y,Y, , ,Y,A,A,J,K,0,L,Y, ,Y, ,Y,Y,Y, ,Y,Y,Y,Y,Y, ,Y, ,Y,Y,Y,Y,Y,Y,Y, , ,Y, , ,Y,Y,Y, , , ,Y,Y,Y,Y,Y,Y,Y, ,Y,Y, , , ,B,M, 
114.266666667,22.583333333,12,57857,57855,YANTIAN,CN,22.583333,114.266667,22,35,N,114,16,E,161,93730,S,CN,E,Y,Y, ,Y,Y,G,B,G,M,1,M, , ,Y, ,Y,Y,Y, ,Y, ,Y,Y, ,Y,Y,Y,Y, , ,Y, , , , , ,Y, , , ,Y,Y, , , ,Y,Y,Y, , , , ,Y,Y,Y, , , ,C, ,S
-90.933333333,29.9833333330001,13,8893,8650,ST. JAMES,US,29.983333,-90.933333,29,59,N,90,56,W,CP05,11352,S,RN,F, , , ,Y, , , , ,J,0,M, , , , ,Y,Y,Y,Y, , , , ,Y, ,Y, , , ,Y,Y,Y, , , , , , , , , , , , , , , ,Y, , , , , , , , , , , , , 
158.65,53.0500000000001,14,62600,62530,PETROPAVLOVSK,RU,53.05,158.65,53,3,N,158,39,E,155,96500,V,CN,G,Y,Y, ,Y,Y,J,C,K, ,5,M, , ,Y, ,Y, ,Y, , , , , , ,Y, , ,Y, , ,Y,Y, , ,Y, ,Y,Y, ,N,Y,Y,Y, ,Y,Y,Y, , , ,Y,Y,Y,Y,Y, ,Y,Y,A,M, 
165.983333333,55.2,15,62630,62530,NIKOL SKOYE,RU,55.2,165.983333,55,12,N,165,59,E,155,96740,V,CN,P, , ,Y, , ,H,J, , ,4, , , , , , , , , , , , , , , , , ,Y, , , , ,Y, , , ,Y, , , , , , , , , , , , , , , ,Y,Y, , , , ,D, , 
-173.233333333,64.4166666670001,16,62640,62530,PROVIDENIYA,RU,64.416667,-173.233333,64,25,N,173,14,W,155,96645,V,CN,G,N,N,Y,Y,N,A,A,K,L,2, , , , , ,Y,Y,Y, ,Y, ,Y, , , ,Y,Y,Y,Y,Y,N,Y, ,Y, , , , , ,Y,Y,Y, , , ,Y,Y,Y, , , , ,Y,Y,Y,Y, , ,C, , 
162.316666667,69.6333333330001,17,62660,62530,AMBARCHIK,RU,69.633333,162.316667,69,38,N,162,19,E,183,41100,V,CN,F, , ,Y, , ,O,L,P, ,0, ,Y, , , , ,Y, , , , , , , , , , , , , ,Y,Y,Y, , , ,Y, , , , , , , , , , , , , , , ,Y,Y,Y, , , ,B, , 
128.866666667,71.6333333330001,18,62670,62530,TIKSI,RU,71.633333,128.866667,71,38,N,128,52,E,183,800,S,CN,F, , ,Y, , ,M,M,M,P,1, , , , , , ,Y, , , , , , , , , , ,Y, ,Y, ,Y,Y, , , ,Y, , , ,Y,Y,Y, , ,Y,Y, , , , , , ,Y,Y, , , ,C, , 
170.3,69.7166666670001,19,62680,62530,PEVEK,RU,69.716667,170.3,69,43,N,170,18,E,183,41060,V,CN,G, , , ,Y, ,K,J,N,N,0,L, ,Y, , , , , , , , , , , , , ,Y, , ,Y, ,Y,Y,Y, , ,Y, , , , ,Y, , , ,Y,Y, , , , , , ,Y,Y, , , ,C, , 
80.516666667,73.5000000000001,20,62695,62530,PORT DIKSON,RU,73.5,80.516667,73,30,N,80,31,E,183,42141,V,CN,G, , ,Y, ,N,J,M,J,N,1,M, , , , ,Y,N,N,N, , , ,Y, ,Y,N,N,Y,Y,Y,N,Y,Y, , , ,Y,Y, ,Y,Y,Y, , , , ,Y, , , , , ,Y,Y,Y, , , ,C, , 
84.4333333330001,69.6666666670001,21,62710,62530,UST-PORT,RU,69.666667,84.433333,69,40,N,84,26,E,183,800,V,RN,G, , ,Y, , ,L,K,L, ,0, , , , , , ,Y, , , , , , , , , , , , , , ,Y, , , , , , , , , , , , , , , , , , , , , , , , , , ,D, , 
86.1666666670001,69.4,22,62720,62530,DUDINKA,RU,69.4,86.166667,69,24,N,86,10,E,183,800,M,RN,G, , ,Y,Y, ,M,L,M,P,0,M, , , , , ,Y, , ,Y, , , , , ,Y, , ,Y,Y,Y,Y,Y, , , ,Y, , , , ,Y,Y, , ,Y,Y, , , , , , , ,Y, , , ,C, , 
86.6000000000001,67.4833333330001,23,62730,62530,IGARKA,RU,67.483333,86.6,67,29,N,86,36,E,183,800,S,RN,G,N,N,Y,Y,N,E,J,L,J,0,M,Y, ,Y,N,Y,Y,Y, , , ,Y,Y,Y,Y,Y,Y,Y,Y,Y, ,Y,Y,Y, , ,Y,N, ,N, , ,Y, , , ,Y,Y, , , , ,Y,Y,Y,Y,N,N,C, , 
72.9,67.6666666670001,24,62740,62530,MYS NOVYY PORT,RU,67.666667,72.9,67,40,N,72,54,E,183,804,V,RN,F, , ,Y, , ,M,N,N, ,2, , , , , , ,Y, , , , , , , , , , ,Y, , , , ,Y, , , ,Y, , , , , , , , , , , , , , , , , , , , , , , , 
53.0000000000001,67.65,25,62770,62530,NAR YAN-MAR,RU,67.65,53,67,39,N,53,0,E,183,804,V,RN,F,N,N,Y,Y, ,O,N,M, ,2,M,Y,Y,Y,N,Y,Y,Y, ,Y, , ,Y, , , , ,Y,Y,Y, ,Y, , , , ,N, , ,Y, ,Y,Y, , ,Y,Y,Y,Y, , , , ,Y,Y, , , ,C, , 
44.1833333330001,65.833333333,26,62775,62530,MEZEN,RU,65.833333,44.183333,65,50,N,44,11,E,183,BA2271,S,CN,G,Y,N,Y,Y, ,O,O,O, ,3,M,Y, ,Y,N,Y,Y,Y,Y,Y, ,Y, ,Y, , , ,Y,Y,Y,Y,Y, , , , ,Y, , ,Y, , ,Y, , , ,Y,Y,Y, , , , ,Y,Y, , , ,C, , 
40.533333333,64.533333333,27,62800,62530,ARKHANGELS'K,RU,64.533333,40.533333,64,32,N,40,32,E,183,BA2280,M,RN,G,Y,N,Y,Y,Y,L,K,L,L,1,L,Y, ,Y,N,Y,Y,Y, ,Y, ,Y,Y,Y,Y,Y,Y,Y,Y,Y,Y,Y, , , , ,Y,Y,Y,Y,Y,Y,Y, ,Y, ,Y,Y,Y,Y,Y,Y,Y,Y,Y,Y,Y,Y,A,L,L
39.783333333,64.5666666670001,28,62810,62530,SEVERODVINSK,RU,64.566667,39.783333,64,34,N,39,47,E,183,BA2273,S,CN,F, , ,Y, , ,L,K,K,L,2, ,Y,Y,Y, ,Y,Y, , ,Y, ,Y,Y, , ,Y,Y,Y, ,Y,Y,Y, , , , ,Y, , , ,Y,Y,Y,Y, , ,Y,Y,Y, , , ,Y,Y,Y,Y, , ,A,S, 
38.1000000000001,63.9,29,62820,62530,ONEGA,RU,63.9,38.1,63,54,N,38,6,E,183,BA2097,V,RN,G,Y,N,Y,Y,N,N,O,N, ,1,M,Y,N, ,N,Y,Y,Y, ,Y, ,Y,Y,Y, ,Y,Y,Y,Y, ,Y,Y,Y, , , ,Y, , ,Y, , , , , , , ,Y, , , , ,Y,Y, , , , ,C, , 
34.8000000000001,64.533333333,30,62830,62530,BELOMORSK,RU,64.533333,34.8,64,32,N,34,48,E,183,BA2275,S,CN,F, , ,Y, , ,M,N,O,N,4, ,Y, ,Y, ,Y,Y,Y, , , , ,Y,Y, , , ,Y, , ,Y,Y, , , , ,Y, , , , , , , , , , ,Y,Y, , , , , , , , , ,C, , 
34.783333333,64.9833333330001,31,62840,62530,RABOCHEOSTROVSK,RU,64.983333,34.783333,64,59,N,34,47,E,183,BA2274,S,CN,F, , ,Y, , ,N,M,K,N,5, ,Y, , , , ,Y, , ,Y, , , , , , , ,Y, , ,Y,Y, , , , ,Y, , , ,Y, , , , , ,Y,Y,Y, , , , ,Y, , , , ,C, ,S
33.5666666670001,66.283333333,32,62860,62530,KERET,RU,66.283333,33.566667,66,17,N,33,34,E,183,BA3180,S,CN,F, , ,Y, , ,K,G,M, ,0, ,Y, , , , ,Y, , , , , , , , , ,Y, , , , ,Y, , , , ,Y, , , , , , , , , , ,Y,Y, , , , , , , , , ,C, , 
32.8666666670001,66.6833333330001,33,62870,62530,KOVDA,RU,66.683333,32.866667,66,41,N,32,52,E,183,BA3180,V,CN,G, , ,Y, , ,J,G,N, ,0, ,Y, , , ,Y,Y, ,Y,Y, , , , , , ,Y, , , , , , , , , ,Y, , , ,Y, , , , , ,Y,Y,Y, , , , , , , , , , , , 
32.4166666670001,67.1333333330001,34,62890,62530,KANDALAKSHA,RU,67.133333,32.416667,67,8,N,32,25,E,183,BA3180,V,RN,F, , ,Y, , ,L,G,K, ,2,M,Y, ,Y,N,Y,Y,Y, , , ,Y,Y,Y, ,Y,Y,Y,Y, ,Y,Y, , , , ,Y,Y, , , ,Y, , , , ,Y,Y,Y, , , ,Y,Y,N,Y, , ,C, ,S
34.3666666670001,66.6666666670001,35,62900,62530,BOLSHAYA PIRYU GUBA,RU,66.666667,34.366667,66,40,N,34,22,E,183,BA3180,S,CN,G, , ,Y, , ,N,J,N, ,5, , , , , , ,Y, , ,Y, ,Y, , , , , ,Y, , , ,Y, , , , ,Y, , , , , , , , , , ,Y, , , , , , , , , , ,C,S, 
39.516666667,68.0500000000001,36,62910,62530,OSTROVNOY GREMIKHA,RU,68.05,39.516667,68,3,N,39,31,E,183,BA2269,S,CN,G, , , , , ,H,G,K, ,11, ,Y, , , , ,Y, , , , , , , , ,Y, ,Y, , , ,Y, , , , ,Y, , , , , , , , , , , , , , , ,Y,Y,Y, , , ,C,M, 
33.0500000000001,68.9833333330001,37,62950,62530,MURMANSK,RU,68.983333,33.05,68,59,N,33,3,E,183,42760,L,RN,G,Y,N,Y,N,Y,L,G,M,A,3,M,Y,Y,Y,N,Y,Y,Y, ,Y, ,Y,Y, , ,Y,Y,Y,Y,Y,Y,Y, , , , ,Y,Y, ,Y,Y,Y,Y,Y, ,Y,Y,Y,Y,Y,Y,Y, ,Y,Y,Y,Y,Y,A,L,M
33.033333333,68.9833333330001,38,62970,62530,MYS ABRAM,RU,68.983333,33.033333,68,59,N,33,2,E,183,42760,V,CN,F, , ,Y, , ,H,H,N, ,8, , , , , , ,Y, , , , , , , , , , ,Y, , ,Y,Y, , , , ,Y, , , ,Y, , , , , ,Y,Y, , , , , ,Y, , , , , , , 
-45.033333333,-60.733333333,39,63070,63060,ELLEFSEN HARBOR,AQ,-60.733333,-45.033333,60,44,S,45,2,W,200,29107,V,CN,G, , ,Y,Y,N,J,A, , ,0, ,Y,Y, , , , , , , , , , , , , , , , , , , ,Y, , , , , , , , , , , , , , , , , , , , , , , , , , , , 
-44.716666667,-60.7499999999999,40,63080,63060,SCOTIA BAY,AQ,-60.75,-44.716667,60,45,S,44,43,W,200,29107,V,CN,P, , ,Y,Y,N,A,G, , ,0, ,N,Y, , , , , , , , , , , , , , , , , , , ,Y, , , , , , , , , , , , , , , , , , , , , , , , , , , , 
-58.416666667,-62.083333333,41,63090,63060,ADMIRALTY BAY,AQ,-62.083333,-58.416667,62,5,S,58,25,W,200,29101,V,CN,G, , ,Y, ,N,A,A, , ,0, , ,Y, , , , , , , , , , , , , , , , , , , ,Y, , , , , , , , , , , , , , , , , , , , ,Y, , , , , , , 
-60.6333333329999,-62.9499999999999,42,63095,63060,PORT FOSTER,AQ,-62.95,-60.633333,62,57,S,60,38,W,200,29101,V,CN,F, , ,Y, ,N,A,B, , ,0, , ,Y, , , , , , , , , , , , , , ,Y, ,Y, , ,Y, , , , , , , , , , , , , , , , , , , , , , , , , , , , 
-63.4999999999999,-64.8166666669999,43,63100,63060,PORT LOCKROY,AQ,-64.816667,-63.5,64,49,S,63,30,W,200,29106,V,CN,P, , ,Y, ,N,C,E, , ,3, ,Y, , , , , , , , , , , , , , , ,Y, , , , ,Y, , , , , , , , , , , , , , , , , , , , , , , , , , , , 
-62.9999999999999,-64.3166666669999,44,63110,63060,MELCHIOR HARBOR,AQ,-64.316667,-63,64,19,S,63,0,W,200,29106,V,CN,P, ,Y,Y, ,N,N,A, , ,0, ,Y,Y, , , , , , , , , , , , , , ,Y, , , , ,Y, , , , , , , , , , , , , , , , , , , , ,Y, , , , ,N, , 
-62.933333333,-64.3166666669999,45,63120,63060,ANDERSEN HARBOR,AQ,-64.316667,-62.933333,64,19,S,62,56,W,200,29106,V,CN,P, ,Y,Y, ,N,A,C, , ,0, , ,Y, , , , , , , , , , , , , , , , , , , ,Y, , , , , , , , , , , , , , , , , , , , ,Y, , , , , , , 
150.716666667,59.5666666670001,46,62550,62530,BUKHTA NAGAYEVA (MAGADAN),RU,59.566667,150.716667,59,34,N,150,43,E,155,96441,S,CN,E, , ,Y,Y, ,E,E,J,L,3, , , , , ,Y,Y,Y, ,Y, , , ,Y, ,Y, ,Y, ,Y,Y,Y, , , , ,Y, , , , ,Y,Y, , , ,Y, , , , , , ,Y,Y,Y, , ,B, ,M
-90.7,28.45,47,8822,8650,SOUTHWEST PASS,US,28.45,-90.7,28,27,N,90,42,W,CP05, ,S,RN,N,N,N,N,Y, , , , ,J,0,M, , , , , , ,Y,Y, , , , , , ,Y, , , , , ,Y, , , , , , , , , , , , , , , ,Y, , , , , , , , , , , , , 
-90.2,38.716666667,48,8890,8650,TRI-CITY PORT,US,38.716667,-90.2,38,43,N,90,12,W,CP05, ,L,RN,E,N,N, ,Y,Y,O, , , ,0,L, , , ,Y,Y, ,Y, , ,Y,Y, , , ,Y,Y,Y,Y,Y,Y,Y,Y, , , ,Y,Y,Y,Y,Y,Y,Y,Y, , , ,Y,Y,N,Y,Y,Y,Y,Y,Y,Y,Y,B,L,M
130.966666667,33.95,49,62140,61100,MOJI KO,JP,33.95,130.966667,33,57,N,130,58,E,159,97274,M,RN,G,Y,Y,N,Y,Y,J,K,K,H,3,M,Y,Y,Y,N,Y,Y,Y,Y,Y,N,Y,Y, ,Y, , ,Y,Y,Y,Y,Y,Y, , , ,Y,Y, ,Y, ,Y,Y,Y,Y,Y, ,Y,Y,N,Y,Y,Y,Y,Y,Y,Y,Y,C,M,S
131.016666667,33.783333333,50,62145,61100,KANDA,JP,33.783333,131.016667,33,47,N,131,1,E,159,97274,V,CN,G, , , ,Y,Y,J,M,H, ,2,L, , , ,N,Y,N,Y, ,Y, ,Y,Y, ,Y,Y, ,Y,Y,Y,Y,Y,Y, , , ,Y, , , , , ,Y, , , , ,Y,Y,Y,Y,Y,Y,Y,Y,Y,Y,Y,A, ,S
131.666666667,33.2500000000001,51,62160,61100,OITA KO,JP,33.25,131.666667,33,15,N,131,40,E,159,97283,V,CB,F,N,N,N,Y, ,A,A,G,D,2,L,Y, ,Y,N,Y,N,Y,Y,Y, ,Y,Y, ,Y,Y, ,Y,Y,Y,Y,Y, , , , ,Y, , ,Y, ,Y,Y, ,Y,Y,Y,Y,Y, , , ,Y,Y,Y,Y, , ,C, ,S
131.866666667,33.2500000000001,52,62165,61100,SAGANOSEKI KO,JP,33.25,131.866667,33,15,N,131,52,E,159,97278,S,CB,F, , , ,Y, ,K,E,K, ,2,M, , ,Y,N,Y,N,Y, , , ,Y,Y, ,Y, , ,Y,Y,Y, ,Y,Y, , , ,Y, , , , , , , , , ,Y,Y, , , , , ,Y,Y, , , ,C, , 
131.866666667,33.083333333,53,62170,61100,TSUKUMI KO,JP,33.083333,131.866667,33,5,N,131,52,E,159,97278,V,CB,F,N,N,N,Y, ,A,A,F, ,2,L,Y, ,Y,N,Y,N,Y,Y,Y, ,Y,Y, , , , ,Y,Y, ,Y,Y, , , , ,Y, , ,N, , ,Y, , ,Y,Y,Y, , , , , ,Y,Y, , , ,C, , 
131.933333333,32.966666667,54,62175,61100,SAIKI KO,JP,32.966667,131.933333,32,58,N,131,56,E,159,97278,S,CB,F,Y,Y, , ,N,J,D,K, ,2,M, , ,Y, ,Y,N,Y, , , ,Y,Y, ,Y,Y, ,Y,Y,Y, ,Y,Y, , , ,Y, , , , , ,Y,Y,Y, , , , , , , ,Y,Y,Y, , , ,C, , 
131.666666667,32.4333333330001,55,62190,61100,HOSOSHIMA KO,JP,32.433333,131.666667,32,26,N,131,40,E,158,97320,V,CB,F,N,Y,N,Y, ,K,G,K,K,2,L, , ,Y,N,Y,N,Y, , ,Y,Y,Y, ,Y, , ,Y,Y,N,Y,Y, , , , ,Y,Y, ,N,Y,Y,Y, , ,Y,Y,Y, , , , ,Y,Y,Y, , , ,C,M,S
130.566666667,31.583333333,56,62220,61100,KAGOSHIMA KO,JP,31.583333,130.566667,31,35,N,130,34,E,158,97343,M,CN,G,Y,Y,N,Y, ,J,A,H, ,2,L,Y,Y,Y,N,Y,N,Y,Y,Y,N,Y,Y, ,Y, , ,Y,Y,Y,Y,Y, , , , ,Y, , ,Y,Y,Y, , , ,Y,Y,Y, , , ,Y,Y,Y,Y, ,Y,Y,C,S,S
131.1,31.466666667,57,62224,61100,SHIBUSHI WAN,JP,31.466667,131.1,31,28,N,131,6,E,158,97341,S,CB,F, ,Y, , ,Y,K,B,J, ,2,L,N, , ,N,Y,N,Y, ,Y, ,Y,Y, ,Y, , , ,Y, ,Y, , , , , ,Y, , , , ,Y, , ,Y, , , , , , , , ,Y,N, , , ,C, ,S
130.55,31.3833333330001,58,62225,61100,KIIRE,JP,31.383333,130.55,31,23,N,130,33,E,158,97342,V,OR,F,N,N,N,Y,Y,A,A,A,A,3,L,Y,Y,Y,N,Y,Y,Y, ,Y, ,Y,Y, ,Y,Y, , ,Y, ,Y,Y,Y,Y, , ,Y, , ,Y, , , , , , , ,Y,Y,Y,Y,Y,Y,Y,Y, , , ,C, ,S
130.383333333,32.2,59,62250,61100,MINAMATA KO,JP,32.2,130.383333,32,12,N,130,23,E,158,97383,V,CB,F, , , ,Y, ,F,K,K, ,2,L,Y, , , , ,N,Y, , , ,Y,Y, ,Y,Y,Y,Y,Y, ,Y,Y,Y, , , ,Y, , ,Y, , ,Y, , ,Y, ,Y, , , , , ,Y,Y, , , ,C, ,S
130.533333333,32.5000000000001,60,62255,61100,YATSUSHIRO KO,JP,32.5,130.533333,32,30,N,130,32,E,158,97383/5,S,RN,G, , , ,Y,Y,J,J,H,N,4,L, ,Y, ,N,Y,N,Y, , , ,Y,Y, ,Y, , ,Y,Y,Y,Y, , , , , ,Y, , , ,Y,Y, , , ,Y,Y,Y, , , , ,Y,Y,Y, , , ,C, ,S
130.466666667,32.6000000000001,61,62280,61100,MISUMI KO,JP,32.6,130.466667,32,36,N,130,28,E,158,97389,S,CN,F,Y,N,N,Y, ,J,G,L, ,3,L,Y,Y,Y,N,Y,N,Y, , , ,Y,Y, , ,Y,Y,Y,Y,Y,Y,Y,Y, , , ,Y, , ,N,Y, , , ,Y,Y,Y,Y, , , , ,Y,Y,Y, ,N,N,C, ,M
130.416666667,33.0000000000001,62,62290,61100,MIIKE KO,JP,33,130.416667,33,0,N,130,25,E,158,97386,S,CB,G, , , ,Y,Y,M,H,K,M,4,L,Y, ,Y,Y,Y,Y,Y, ,Y,N,Y,Y, ,Y,Y, ,Y,Y,Y,Y,Y, , , , ,Y,N, ,N,Y,Y,Y, ,Y,Y,Y,Y, , , , ,Y,Y,Y, , , ,C, ,S
129.85,32.716666667,63,62360,61100,NAGASAKI,JP,32.716667,129.85,32,43,N,129,51,E,159,97391,L,CN,F,N,N,N,Y,Y,H,A,G,J,3,L,Y, ,Y,N,Y,N,Y, ,Y, ,Y,Y, ,Y,Y,Y,Y,Y, , ,Y,Y, , , ,Y,Y, , , ,Y,Y,Y, ,Y, ,Y,Y, ,Y,Y,Y,Y,Y, ,Y,Y,A,L, 
129.716666667,33.1666666670001,64,62380,61100,SASEBO,JP,33.166667,129.716667,33,10,N,129,43,E,159,97400,M,CN,G,N,N,N,Y,N,J,A,J,H,3,L,Y,Y,Y,Y,Y,Y,Y, ,Y, ,Y,Y, ,Y, , ,Y,Y,Y,Y,Y,Y, , , ,Y,Y, , , , ,Y,Y, , ,Y,Y,Y, ,Y,Y, ,Y,Y,Y,Y,Y,A,L, 
129.883333333,33.283333333,65,62400,61100,IMARI,JP,33.283333,129.883333,33,17,N,129,53,E,159,97410/20,V,RN,F, , , , , ,G,E,K,G,2,L,Y, , , ,Y,Y,Y, ,Y, ,Y,Y,Y, ,Y, ,Y,Y, ,Y, ,Y,Y, , ,Y, , , , , , , , , , ,Y,Y,Y,Y,Y,Y,Y,Y,Y,Y,Y,A,L,S
129.966666667,33.4833333330001,66,62420,61100,KARATSU,JP,33.483333,129.966667,33,29,N,129,58,E,159,97412,S,CN,G, ,Y, ,Y, ,M,K,L,J,2,L,Y, ,Y, ,Y,N,Y, ,Y, ,N,Y, ,Y,Y,Y,Y,Y,Y,Y,Y, , , , ,Y, , ,N, , , , , , , , , , , , , ,Y,Y, , , ,C, ,S
130.4,33.6000000000001,67,62430,61100,HAKATA,JP,33.6,130.4,33,36,N,130,24,E,159,97421,M,CB,G,Y,N,N,Y, ,G,H,G,N,2,L,Y, ,Y,N,Y,N,Y, ,Y, ,Y,Y, ,Y,Y,Y,Y,Y,Y,Y,Y, , , , ,Y,Y, ,Y,Y,Y,Y, , ,Y, ,Y, , , , , ,Y,Y,Y, , ,C, ,M
129.3,34.2,68,62440,61100,IZUHARA,JP,34.2,129.3,34,12,N,129,18,E,159,97420,V,CN,F,Y,Y, ,Y,N,G,G,M, ,4,L,Y, ,Y,N, , ,N, , , ,N,Y,Y, ,Y, ,N, , , ,Y, , , , ,Y, , , , , , , , , , ,N, , , , ,Y,Y,Y, , , ,C, , 
127.9,26.4166666670001,69,62495,62470,KIN WAN,JP,26.416667,127.9,26,25,N,127,54,E,158,97472,V,OR,P,N,Y,N,Y,Y,A,A,F,A,2,L,Y,Y,Y,Y,Y,Y,Y, , ,Y,Y,Y, ,Y,Y, ,Y,Y,N,Y,Y,Y, , , ,Y, , ,Y, , , , , , , ,Y, , ,Y,Y,Y,Y,Y, , , ,C, , 
127.683333333,26.216666667,70,62500,62470,NAHA KO,JP,26.216667,127.683333,26,13,N,127,41,E,158,97465,S,CB,G,N,N,N,Y, ,H,H,G,M,2,L, , ,Y,Y,Y,Y,Y, ,Y,N,Y,Y, ,Y,Y,Y,Y,Y,Y, ,Y,Y, , , ,Y, , , ,Y,Y,Y, ,Y,Y,Y,Y, , , , , ,Y,Y, , , ,C, , 
125.283333333,24.8000000000001,71,62510,62470,HIRARA KO,JP,24.8,125.283333,24,48,N,125,17,E,158,97481,V,CN,F,Y,Y, , , ,L,A,L, ,1, , , , , , , , , , , , ,Y, , , ,Y, , , , , , , , , ,Y, , , , , , , , , , , , , , , , , , , , , ,D, , 
124.166666667,24.333333333,72,62520,62470,ISHIGAKI,JP,24.333333,124.166667,24,20,N,124,10,E,158,97483,V,OR,F, , , ,Y, ,L,B,K, ,1,M, , , , , , ,N,Y, , , ,Y, , , ,Y, , ,Y, ,Y, , , , ,Y, , , , , , , , , , , , , , , , , , , , , ,D, , 
143.2,59.3666666670001,73,62540,62530,OKHOTSK IY REYD,RU,59.366667,143.2,59,22,N,143,12,E,155,96441,V,RN,F,Y,Y,Y,Y, ,O,M,O, ,2, ,N, , , , ,Y,Y, , , ,Y, , , , , ,Y, ,Y, , ,Y, , , ,Y, , , , ,Y, , , , ,Y, , , , , , , , , , , ,D, , 
130.816666667,33.9,74,62120,61100,WAKAMATSU KO,JP,33.9,130.816667,33,54,N,130,49,E,159,95342,L,CN,F, ,Y, ,Y,Y,K,D,E, ,1,L, ,Y,Y, ,Y,Y,Y, ,Y, ,Y,Y, ,Y,Y,Y,Y,Y, ,Y,Y, , , , ,Y,Y, ,N, , ,Y,Y,Y, ,Y,Y,Y, , , ,Y,Y,Y,Y, , ,C,S,M
131.4,34.4166666670001,75,61720,61100,HAGI KO,JP,34.416667,131.4,34,25,N,131,24,E,159,95320,V,CN,F, , , , , ,M,E,M, ,0, ,N,N,Y, ,Y,N,Y, , , ,Y,Y,Y, , , ,Y, , , ,Y, , , , ,Y, , , , , , , , , , , , , , , ,Y,Y,Y,Y, , ,C, , 
132.083333333,34.9,76,61730,61100,HAMADA KO,JP,34.9,132.083333,34,54,N,132,5,E,159,95320,V,CB,G, , , , , ,L,H,H, ,1,L, , ,Y, ,Y,N,Y, , ,N,Y,Y, ,Y,Y, ,N,Y,Y, ,Y,Y, , , ,Y, , , ,N,N,N, , , ,Y,Y, , , , , ,Y,Y,Y, , ,C,S, 
133.25,35.5500000000001,77,61750,61100,SAKAI KO,JP,35.55,133.25,35,33,N,133,15,E,159,95300,S,CN,F,N,N,N,Y,Y,K,J,H,L,2,L,Y, ,Y,N,Y,N,Y, ,N, ,Y,Y, ,Y,Y,Y,Y, ,Y,Y,Y, , , , ,Y, , ,Y,Y, , , , , ,Y,Y, , ,Y,Y,Y,Y,Y,Y,Y,Y,B,M, 
135.2,35.533333333,78,61790,61100,MIYAZU,JP,35.533333,135.2,35,32,N,135,12,E,159,95280/5,M,CN,F, , , ,Y, ,K,G,N, ,1,L,Y, ,Y, ,Y,N,Y, ,Y, ,Y,Y, ,Y,Y, , ,Y, ,Y,Y, , , , ,Y, , , ,N,N,N, , , , ,Y, , , , , ,Y,Y, , , ,C, ,S
135.333333333,35.516666667,79,61800,61100,MAIZURU KO,JP,35.516667,135.333333,35,31,N,135,20,E,159,95282,S,CN,F,N,N,N,Y,Y,K,D,J, ,0,L, , ,Y,N,Y,N,Y, ,Y, ,Y,Y, ,Y,Y,Y,Y,Y,Y,Y,Y, , , , ,Y,Y, ,N,Y,Y, , , ,Y, ,Y,Y,Y,Y,Y,Y,Y,Y,Y,Y,Y,B,L, 
136.6,36.6166666670001,80,61822,61100,KANAZAWA,JP,36.616667,136.6,36,37,N,136,36,E,159,95276,S,RB,F, , , , ,N,K,J,N,M,4,L, , , , ,Y,N,Y, , , ,Y,Y, ,Y, , ,Y,Y,Y, ,Y, , , , ,Y, , , ,Y,Y, ,Y,Y,Y,Y,Y, , , , , ,Y,Y, , , ,C, , 
136.983333333,37.0500000000001,81,61840,61100,NANAO KO,JP,37.05,136.983333,37,3,N,136,59,E,159,95270,S,CN,G, , , , , ,K,E,K,G,1,L,Y, ,Y, ,Y,Y,Y, , , ,Y,Y, ,Y,Y,Y,Y,Y,Y,Y,Y, , , , ,Y, , , ,Y,Y, , ,Y,Y, ,Y, , , , ,Y,Y,Y, , , ,C, ,S
139.05,37.9166666670001,82,61870,61100,NIIGATA KO,JP,37.916667,139.05,37,55,N,139,3,E,159,95264,M,RB,F,N,N,N,Y, ,K,A,G,G,0,L,N,Y,Y,N,Y,N,Y, ,Y, ,Y,Y, , , , ,Y, ,Y,Y,Y, , , , ,Y,N, ,Y,Y,Y,Y,Y, ,Y,Y,Y,Y, ,Y,Y, ,Y,Y, ,Y,Y,C,M,S
138.566666667,38.083333333,83,61890,61100,RYOTU KO,JP,38.083333,138.566667,38,5,N,138,34,E,159,95261,V,CN,F, ,Y, , ,Y,D,A,M,K,1,L, , , , , , , , , , , , , , , ,Y, , , , , ,Y, , , ,Y, , , , , , , , , , , , , , , , ,Y,Y, , , , , , 
139.816666667,38.9333333330001,84,61900,61100,SAKATA KO,JP,38.933333,139.816667,38,56,N,139,49,E,159,95258,S,CT,F, ,Y, ,Y, ,K,A,H,M,1,L, ,Y,Y, ,Y,N,Y, ,Y, ,Y,Y,Y,Y,Y,Y,Y,Y,Y,Y,Y, , , , ,Y,Y, ,Y, ,Y, , , , ,Y,Y,Y, , , ,Y,Y,Y,Y,Y, ,B, ,S
140.0,39.833333333,85,61910,61100,AKITA-FUNAKAWA KO,JP,39.833333,140,39,50,N,140,0,E,159,95262,V,CB,P,Y,Y,N,Y, ,H,H,H,D,1,L,Y,Y,Y,N,Y,N,Y, ,Y,Y,Y,Y, ,Y,Y,Y,Y,Y,Y,Y,Y, , , , ,Y,Y, ,N, ,Y, , , ,Y, ,Y,Y, , , ,Y,Y,Y, , , ,C, ,S
135.35,34.466666667,86,61935,61100,HANNAN KO,JP,34.466667,135.35,34,28,N,135,21,E,159,97225,S,CN,F, , , , , ,J,E,J,K,2,M, , , , ,Y,Y,Y, , , ,Y,Y, ,Y, , ,Y,Y,Y, ,Y, , , , ,Y, , , ,Y, , , , ,Y, , , , , , ,Y,Y,Y, , , ,C,S, 
134.05,34.3500000000001,87,61940,61100,TAKAMATSU,JP,34.35,134.05,34,21,N,134,3,E,159,97234,V,CB,F, , , ,Y, ,K,K,J,M,2,L, ,Y, , ,Y,N,Y, , ,N,Y,N, , , , ,Y,Y, ,Y,Y, , , , ,Y,Y, ,N, ,Y, , , ,Y,Y,Y,Y, , , , ,Y,Y, , , ,C,S,S
134.6,34.016666667,88,61960,61100,KOMATSUSHIMA,JP,34.016667,134.6,34,1,N,134,36,E,159,97202,S,CB,F,N,N,N,Y, ,L,K,J, ,2, ,Y,Y,Y,N,Y,N,Y, , , ,Y,Y, ,Y, , ,Y,Y,Y,Y,Y, , , , ,Y, , , ,Y,Y, , , ,Y,Y,Y,Y, , , , ,Y,Y, , , ,C, ,S
134.666666667,33.8666666670001,89,61965,61100,TACHIBANA,JP,33.866667,134.666667,33,52,N,134,40,E,159,97200,V,CB,P,N,Y,N,Y, ,K,K,K, ,2,L,Y, ,N, ,Y,N,Y, ,Y, ,Y,Y, ,Y, , ,Y,Y, , ,Y, , , , , , , , , , , , , , , ,Y, , , , , ,Y,Y, , , ,C, , 
133.566666667,33.5000000000001,90,61970,61100,KOCHI KO,JP,33.5,133.566667,33,30,N,133,34,E,158,97303,M,CN,P, ,Y, ,Y,Y,L,L,J, ,2,M, ,Y, , ,Y,N,Y, , , ,Y,Y, ,Y,Y,Y,Y, ,Y, ,Y, , , , ,Y, , ,N, ,Y,Y, , ,Y,Y,Y, , ,Y,Y,Y,Y,Y, , , ,C, , 
133.3,33.3833333330001,91,61980,61100,SUSAKI KO,JP,33.383333,133.3,33,23,N,133,18,E,158,97300,V,CB,F, , , ,Y,Y,L,J,G,N,2,L,Y, ,Y, ,Y,Y,Y, ,Y, ,Y,Y, ,Y,Y,Y,Y,Y, ,Y,Y, , , , ,Y, , , , , , , , , , ,Y, , , , ,Y,Y,N, , , ,N, ,S
132.566666667,33.216666667,92,62010,61100,UWAJIMA KO,JP,33.216667,132.566667,33,13,N,132,34,E,159,97278,V,CN,P,Y,Y, , , ,B,H,M, ,2, ,Y, ,Y, , , , , , , , , , , , , , , , , , ,Y, , , , , , , , , , , , , , , , , , , ,Y,Y,Y, , , ,C, , 
132.416666667,33.45,93,62020,61100,YAWATAHAMA,JP,33.45,132.416667,33,27,N,132,25,E,159,97281,V,CN,G,N,N,N,Y, ,H,F,M, ,2,M, , ,Y,N,Y,Y,Y, ,Y, ,Y,Y, ,Y, , ,Y,Y, ,Y,Y, ,Y, , ,Y, , ,N, ,Y, , , , ,Y,Y, , , , , , ,N, , , ,B,S,S
132.7,33.8500000000001,94,62030,61100,MATSUYAMA,JP,33.85,132.7,33,51,N,132,42,E,159,97241,S,CB,F,Y,Y,N,Y, ,K,G,H,J,3,L,Y,Y,Y,N,Y,N,Y, ,Y, ,Y,Y,Y, ,Y,Y,Y,Y,Y,Y,Y, , , , ,Y, , ,Y,N,N,N,N,N,N,N,Y,N,N,N,N, ,Y,Y, , , ,C, ,S
132.833333333,34.033333333,95,62060,61100,KIKUMA KO,JP,34.033333,132.833333,34,2,N,132,50,E,159,97261/6,V,CB,F, ,Y,N,Y, ,A,A,F,A,0,L,Y, ,Y,N,Y,N,Y, ,Y,N,Y,Y, ,Y, , ,Y,Y,Y,Y, ,Y, , , ,Y, , ,N, , , , , , , ,Y,N,N, , , ,Y,Y, , , ,N, ,S
130.866666667,33.966666667,96,62065,61100,MUTUREZIMA KO,JP,33.966667,130.866667,33,58,N,130,52,E,159,97287,S,OR,P, , , ,Y, ,F,A, ,E,7,L, , , , ,Y,N,Y, ,Y, ,Y, , , , , , ,Y, , ,Y, , , , , , , ,N, , , , , , , , , , , , ,N,Y,Y, ,Y,Y, , , 
133.016666667,34.0666666670001,97,62070,61100,IMABARI KO,JP,34.066667,133.016667,34,4,N,133,1,E,159,97262,S,CB,F,N,N,N,Y, ,L,E,H, ,3,M,Y, ,Y,N,Y,N,Y, ,Y, ,Y,Y, ,Y,Y,Y,Y,Y,Y,Y,Y,Y, , , ,Y, , ,N, ,Y,Y, , , ,Y,Y, , , , ,Y,Y,Y, , , ,C,M,S
133.283333333,33.9833333330001,98,62080,61100,NIIHAMA,JP,33.983333,133.283333,33,59,N,133,17,E,159,97244,S,CB,F, , , , ,Y,M,D,G, ,3,L,Y, ,Y, ,Y,N,Y, ,Y, ,Y,Y,Y,Y,Y, ,Y,Y,Y, ,Y,Y, , , ,Y, , ,N,Y,Y, ,Y, , ,Y,Y,Y, , , , ,Y,Y, , ,N,C, ,S
133.55,34.0000000000001,99,62085,61100,MISHIMA-KAWANOE KO,JP,34,133.55,34,0,N,133,33,E,159,97235,S,CN,F, ,Y, ,Y,Y,K,E,G,L,4,L, , ,Y,N,Y,N,Y, , , ,Y,Y, ,Y, , , ,Y, ,Y, , , , , ,Y, , , , , ,N, , , , , , , , , ,Y,Y,Y, , , ,C, ,S
133.783333333,34.3000000000001,100,62100,61100,MARUGAME KO,JP,34.3,133.783333,34,18,N,133,47,E,159,97236,V,CB,F, , , , , ,J, ,K, ,6,L,Y, ,Y, ,Y,N,Y, , , ,Y,Y, , , , , ,Y, ,Y,Y, , , , ,Y, , , ,Y, , , , , ,Y,Y, , , , , ,Y,Y, , , ,C,M, 
131.233333333,33.9333333330001,101,61690,61100,UBE KO,JP,33.933333,131.233333,33,56,N,131,14,E,159,97251,M,CB,F,N,N,N,N,Y,J,M,H,C,4,L, , ,Y,N,Y,N,Y, ,Y, ,Y,Y,Y, , , ,Y,Y,Y,Y,Y,Y,Y, , ,Y, , ,Y, ,Y, , , ,Y,Y,Y, , , , , ,Y,Y,Y, , ,C,S,M
139.716666667,35.2333333330001,102,61410,61100,URAGA KO,JP,35.233333,139.716667,35,14,N,139,43,E,158,97144,V,CN,F, , , , , ,F,A, , ,1,M, , , , , , ,Y, ,Y, , , , , ,Y,Y, , , ,Y,Y, , , , ,Y, , , , , ,Y, ,Y, , ,Y, , , , ,Y,Y, , , , ,A,M, 
138.7,35.1333333330001,103,61415,61100,TAGONOURA KO,JP,35.133333,138.7,35,8,N,138,42,E,158,97164/5,M,RB,G, , , ,Y,Y,L, ,J,L,1,L,Y, , , ,Y,N,Y, ,Y, ,Y,Y, ,Y, , ,Y,Y,Y,Y,Y,Y, , , ,Y,N, ,N,Y,Y, , , , , ,Y,Y,Y,Y,Y, ,Y,Y, , , ,C,M,M
138.95,34.6666666670001,104,61420,61100,SHIMODA KO,JP,34.666667,138.95,34,40,N,138,57,E,158,97166/7,V,CB,F,N,N,N,Y, ,O,N,N, ,1, , , , , ,Y,N,Y,Y, ,Y,Y, , , ,Y,Y, ,Y,Y, ,Y,Y, , , ,Y,Y, , ,Y,Y, , , , , ,Y, , , , ,Y,Y,Y,Y, , ,C,S, 
138.233333333,34.6000000000001,105,61425,61100,OMAEZAKI KO,JP,34.6,138.233333,34,36,N,138,14,E,158,97159,S,CB,G, , , ,Y, ,J,L,H,N,2,M,N, , , ,Y,N,Y, , , ,Y,Y, ,Y, , ,Y,Y, , ,Y,N, , , , , , , ,Y,Y,N,N,N,Y,N,Y, , , , , ,Y,Y, , , ,C, , 
138.5,35.016666667,106,61460,61100,SHIMIZU KO,JP,35.016667,138.5,35,1,N,138,30,E,158,97163,S,CN,F,N,N,N,Y,N,J,A,G,C,2,L,Y,Y,Y, ,Y,N,Y, ,Y, ,Y,Y, ,Y,Y,Y,Y,Y, ,Y,Y, , , , ,Y,Y, ,Y,Y,Y, , ,Y,Y, ,Y,Y, ,Y,Y, ,Y,Y,Y,Y,Y,C,S,S
136.95,34.8500000000001,107,61470,61100,KINUURA KO,JP,34.85,136.95,34,51,N,136,57,E,158,97181,S,RN,F,N,N,N,Y,Y,J,G,J,H,2,L,Y, ,Y,N,Y,Y,Y,Y,Y,N,Y,Y, ,Y,Y, ,Y,Y, ,Y,Y,Y, , , ,Y, , ,Y, , , , , , , ,Y,N,N,N,N,Y,Y,Y, , , ,C, ,S
137.216666667,34.8166666670001,108,61475,61100,GAMAGORI KO,JP,34.816667,137.216667,34,49,N,137,13,E,158,97188,S,OR,G, , , ,Y, ,K,J,K,N,2,L, , ,Y,N,Y,Y,Y, , , ,Y,Y, ,Y, , ,Y, ,Y, ,Y,N,Y, , ,Y,Y, ,N,Y,Y, , ,Y,Y, ,Y, , , , ,Y,Y,Y, , , ,C, ,S
136.866666667,35.0666666670001,109,61480,61100,NAGOYA KO,JP,35.066667,136.866667,35,4,N,136,52,E,158,97184,L,CB,G,N,N,N,Y,Y,F,F,F,G,2,L,Y,Y,Y,Y,Y,Y,Y, ,Y, ,Y,Y, ,Y,Y,Y,Y,Y,Y,Y,Y, , , , ,Y,Y, ,Y,Y,Y, , ,Y,Y, ,Y,Y,Y,Y,Y, ,Y,Y,Y,Y,Y,A,S,M
136.633333333,34.966666667,110,61490,61100,YOKKAICHI,JP,34.966667,136.633333,34,58,N,136,38,E,158,97187/3,M,CB,G,Y,Y,N,Y,Y,J,H,G,B,2,L,Y,Y,Y,N,Y,Y,Y, ,Y, ,Y,Y, ,Y,Y, ,Y,Y,Y,Y,Y,Y,Y, , ,Y,Y, ,Y, , ,Y,Y,Y,Y, ,Y,Y, , , , ,Y,Y,Y, , ,C, ,M
136.566666667,34.6000000000001,111,61495,61100,MATSUSAKA,JP,34.6,136.566667,34,36,N,136,34,E,158,97181,S,CN,F, ,Y, ,Y, ,M,J,M, ,3, ,Y, , ,N,Y,Y,Y, , , ,Y,Y, , , , , ,Y, ,Y, , , , , ,Y, , , , , , , , , ,Y, , , , , , ,Y, , , , , , ,S
136.85,34.4833333330001,112,61500,61100,TOBA,JP,34.483333,136.85,34,29,N,136,51,E,158,97182,S,CN,F,N,Y,N,Y, ,L,G,N, ,4, ,Y, , , ,Y,Y,Y, , , , , , , , , , , , ,Y,Y,Y, , , ,Y,Y, ,N, , , , , , , , , , , , , ,Y, , , , ,D,S,S
136.216666667,34.0666666670001,113,61515,61100,OWASE KO,JP,34.066667,136.216667,34,4,N,136,13,E,158,97205,V,CN,F,N,N,N,Y, ,C,A,N,E,1,L,Y, ,Y,N,Y,N,Y, ,Y, ,Y,Y, ,Y,Y, ,Y,Y,N,Y,Y, , , , ,Y, , , , , , , , , , , , , , , , ,Y,Y, , , ,C, ,S
135.366666667,33.716666667,114,61540,61100,TANABE KO,JP,33.716667,135.366667,33,43,N,135,22,E,158,97200,V,CN,F,Y,Y,N,Y, ,K,A,N, ,2,M, , ,Y,N,Y,N,Y,Y, , ,Y,Y, , ,Y, ,Y,Y,Y, ,Y,Y, , , ,Y, , , , , ,N, , , , ,Y, , , , , ,Y,Y, , , ,C, , 
135.133333333,34.2,115,61545,61100,WAKAYAMA-SHIMOTSU KO,JP,34.2,135.133333,34,12,N,135,8,E,159,97224,L,CB,F,N,Y,N,Y,Y,J,A,G,A,2,L, , ,Y,N,Y,N,Y, ,Y, ,Y,Y, ,Y,Y,Y,Y,Y,Y,Y,Y, , , , ,Y,Y, ,Y,Y,Y, ,Y, ,Y, ,Y, , , , ,Y,Y,Y,Y, , ,C, ,S
135.433333333,34.5500000000001,116,61547,61100,SAKAI-SENBOKU,JP,34.55,135.433333,34,33,N,135,26,E,159,97226,M,CB,G,Y, , , ,Y,F,K,E,D,1,M, , ,Y,N,Y,Y,Y, ,Y, ,Y,Y, ,Y, , ,Y,Y,Y,Y,Y,N, , , ,Y, , ,Y,Y, , , , , , ,Y,N,N, , , ,Y,Y,Y, , ,C,M,S
135.383333333,34.7,117,61555,61100,AMAGASAKI,JP,34.7,135.383333,34,42,N,135,23,E,159,97245,S,CT,F,N,N,N,Y,Y,K,J,K,K,2,M,Y, ,Y,N,Y,Y,Y, , , ,Y,Y, ,Y,Y, ,Y,Y,Y, ,Y,Y,Y, , ,Y, , ,Y,Y,Y, , , , ,Y,Y, , , , ,Y,Y,Y,Y, , ,C, , 
135.183333333,34.65,118,61560,61100,KOBE,JP,34.65,135.183333,34,39,N,135,11,E,159,97230,L,OR,G,N,N,N,Y, ,G,F,G,G,2,L, ,Y,Y,Y,Y,Y,Y, , ,N,Y,Y, ,Y, , ,Y,Y,Y,Y,Y, ,Y, , ,Y,Y, ,Y,Y,Y,Y, , ,Y,Y,Y,Y,Y,Y,Y, ,Y,Y,Y,Y,Y,A,L,S
134.633333333,34.7500000000001,119,61567,61100,HIMEJI,JP,34.75,134.633333,34,45,N,134,38,E,159,97231,M,CB,F,N,N,N, , ,F,F,H,C,1,L, , ,Y,N,Y,N,Y, , ,N,Y,Y, ,Y,N, ,Y,Y, ,Y,Y,N, , , , , , ,Y,Y,Y, ,Y, ,Y,Y,Y, , , , , ,Y,Y, ,Y,Y,C, ,S
134.466666667,34.783333333,120,61570,61100,AIOI,JP,34.783333,134.466667,34,47,N,134,28,E,159,97219,V,CN,F,N,N,N,Y,Y,M,M,N, ,1,L,Y, ,Y,N,Y, ,Y, ,Y, ,Y,Y, , , , ,Y,Y, , , ,Y, , , ,Y, , ,Y, , ,Y,Y,Y,Y,Y,Y,Y,Y,Y,Y,Y,Y,Y,Y,Y,Y,A,L,L
134.833333333,34.7,121,61573,61100,KAKOGAWA,JP,34.7,134.833333,34,42,N,134,50,E,159,97204/6,V,CB,F,N,N,N,Y, ,J,L,N,F,0,M, , ,Y,N,Y,N,Y, , , ,Y,Y, , , ,Y,Y, , ,Y,Y, , , , , , , ,Y, , , , , , , , , , , , , ,Y,Y, , , , , ,S
133.95,34.4833333330001,122,61580,61100,UNO KO,JP,34.483333,133.95,34,29,N,133,57,E,159,97234,V,CN,F,N,N,N, ,Y,H,L,J, ,2,L, , ,Y,N,Y,Y,Y, ,Y, ,Y,Y, , ,Y, ,Y,Y,Y,Y,Y,Y, , , ,Y, , ,Y,Y,Y,Y,Y,Y, ,Y,Y, , ,Y,Y, ,Y,Y, , , ,A,M, 
133.933333333,34.45,123,61590,61100,HIBI KO,JP,34.45,133.933333,34,27,N,133,56,E,159,97234,V,CN,F, , , , , ,H,L, , ,2,L, , , , ,Y,N,Y, ,Y, ,Y,Y, ,Y, , ,Y,Y, , ,Y,Y, , , , , , , ,Y,Y, , , , ,Y,Y,Y,Y,Y,Y,Y,Y,Y, ,Y,Y,B,L, 
133.75,34.5000000000001,124,61595,61100,MIZUSHIMA KO,JP,34.5,133.75,34,30,N,133,45,E,159,97238/33,M,CN,G,Y,N,N,Y,Y,G,C,E,E,3,L, , ,Y,N,Y,Y,Y, , ,N,Y,Y, ,Y,Y, ,Y,Y,Y,Y,Y, , , , ,Y, , ,Y,Y,Y, ,Y, ,Y,Y,Y,N,N, , , ,Y,Y, , , ,C,M,S
133.166666667,34.3833333330001,125,61630,61100,ONOMICHI-ITOZAKI,JP,34.383333,133.166667,34,23,N,133,10,E,159,97243,L,CN,G, , , , ,Y,K,K,K, ,3,L, , , , ,Y,N,Y, ,Y, ,Y,Y, ,Y,Y, ,Y,Y,Y,Y,Y,Y, , , ,Y, , ,Y, , ,Y, , , ,Y,Y, , , , ,Y,Y,Y, , , ,C,L,M
132.55,34.2333333330001,126,61640,61100,KURE,JP,34.233333,132.55,34,14,N,132,33,E,159,97268/7,M,CN,G,Y,Y,N,Y,N,E,B,E,G,4,L,Y,Y,Y,N,Y,N,Y, ,Y,N,Y,Y, ,Y,Y, ,Y,Y,Y,Y,Y,Y, , , ,Y,Y, ,N, ,Y,Y,Y,Y,Y,Y,Y,Y,Y,Y,Y,Y,Y,Y,Y,Y,Y,A,L,S
132.433333333,34.1833333330001,127,61655,61100,KANOKAWA KO,JP,34.183333,132.433333,34,11,N,132,26,E,159,97267,V,CN,G,N,N,N,Y, ,E,J, ,J,8,L,Y,Y,Y,N,Y,N,Y,Y, ,N,Y,Y,Y, ,Y, ,Y,Y,Y, , ,Y, , , ,Y, , , ,N,N,N, , , , ,N, , , , ,Y,Y,Y,Y, , , , , 
132.25,34.1833333330001,128,61662,61100,IWAKUNI KO,JP,34.183333,132.25,34,11,N,132,15,E,159,97288,M,OR,G,Y,Y,N,Y, ,B,G,J,F,3,L,Y,Y,Y,Y,Y,N,Y, ,Y,Y,Y,Y, ,Y, , ,Y,Y,Y,Y,Y,Y, , , ,Y, , ,Y,Y, , , , , ,Y,Y, , ,N,N,Y,Y,Y,Y,N,N,C, ,S
131.866666667,34.0000000000001,129,61675,61100,KUDAMATSU,JP,34,131.866667,34,0,N,131,52,E,159,97272,S,CN,G,N,N,N,Y,Y,L,K,L,D,3,M,N, , ,N,Y,N,Y, ,Y,N,Y,Y, ,Y, , , ,Y,Y,Y,Y, , , , ,Y, , ,Y, ,Y,Y, , , ,Y, , , ,Y,Y,Y,Y,Y,Y, , ,C,L,S
131.816666667,34.033333333,130,61680,61100,TOKUYAMA,JP,34.033333,131.816667,34,2,N,131,49,E,159,97272,M,OR,F,N,N,N,N, ,J,F,J,H,3,L, , ,Y,N,Y,N,Y,Y, ,Y,Y,Y, ,Y, , ,Y,Y,Y,Y,Y, , , , ,Y, , ,Y, , ,Y,Y,Y,Y, ,Y, , , , ,Y,Y,Y,Y, , ,C,M,M
139.666666667,35.283333333,131,61400,61100,YOKOSUKA KO,JP,35.283333,139.666667,35,17,N,139,40,E,158,97146/4,M,CN,G,N,N,N,Y, ,G,A,K,K,2,L,Y,Y,Y,Y,Y,Y,Y, , , ,Y,Y, ,Y,Y,Y,Y,Y,Y,Y,Y, , , , ,Y,Y, ,N, , ,Y, , , , ,Y, , , , ,Y,Y,Y,Y, , ,C,M,S
142.133333333,50.9,132,61040,60840,ALEKSANDROVSK -SAKHALINSKIY,RU,50.9,142.133333,50,54,N,142,8,E,155,96181,S,OR,P,Y,Y,Y,Y, ,L,G,P, ,2,M,N, , , ,Y,Y,N,Y,Y, ,Y, ,Y, , , ,Y,Y, ,Y, ,Y, , , ,Y, , , , ,Y,Y, , ,Y,Y, , , , , ,Y,Y, , , , ,D, ,S
141.516666667,52.216666667,133,61045,60840,LAZAREV,RU,52.216667,141.516667,52,13,N,141,31,E,155,96382,V,OR,G, , ,Y,Y, ,N,G,M,O,2,M, , , , , ,Y, , ,Y, ,Y, , ,Y, , , , , ,Y,Y, , , , ,Y, , , , ,Y, , , , ,Y, , , , , , , , , , , ,D, , 
142.5,53.583333333,134,61060,60840,MOSKAL VO,RU,53.583333,142.5,53,35,N,142,30,E,155,96360,V,CN,F,Y,Y,Y, , ,M,L,M,M,5,M, , , , ,Y,Y,Y,Y,Y, , , , , , , ,Y, , ,Y, ,Y, , , ,Y, , , , ,Y, , , ,Y,Y, , , , , , , ,Y, , , ,N, ,S
146.833333333,43.8666666670001,135,61090,61070,SHAKOTAN,RU,43.866667,146.833333,43,52,N,146,50,E,155,96902,V,CN,G, , , , , ,K,G,O, ,3, , , , , , , , , , , , , , , , , ,Y, , , , ,Y, , , ,Y, , , , , , , , , , , , , , , , , , , , , , , , 
143.35,44.3500000000001,136,61110,61100,MOMBETSU KO,JP,44.35,143.35,44,21,N,143,21,E,158,96906,V,CB,G, ,Y,Y,Y, ,J,J,J, ,3, ,N, ,Y,N,Y,N,Y, , , , ,Y, ,Y, , , ,Y,Y,Y,Y, , , , ,Y, , ,Y, , , , , , , ,Y, , , , , ,Y, ,Y, , ,C, , 
144.283333333,44.016666667,137,61120,61100,ABASHIRI KO,JP,44.016667,144.283333,44,1,N,144,17,E,158,96906,S,CB,G, ,Y,Y,Y,Y,M,G,J, ,2,M, , ,Y,Y,Y,N,Y, , , ,Y,Y, , ,Y,Y,Y, ,Y,Y,Y,Y, , , ,Y, , , , , ,N, , , , ,Y, , , , , ,Y, ,Y, , ,C, , 
145.583333333,43.333333333,138,61130,61100,NEMURO KO,JP,43.333333,145.583333,43,20,N,145,35,E,158,96764,S,CB,F, ,Y,Y,Y, ,M,G, , ,2,M,N, ,Y, , , , , , , , , , , ,Y,Y, , , ,Y,Y,Y, , , ,Y, , , , , , , , , , , , , , , ,Y,Y,Y, , , , , , 
145.583333333,43.283333333,139,61140,61100,HANASAKI KO,JP,43.283333,145.583333,43,17,N,145,35,E,158,96764,V,CB,F, ,Y,Y,Y, ,H,K,K, ,3,L,Y, ,Y, , , , , , , , , , , , , , , , , , ,Y, , , , , , , , , , , , , , , , , , , , ,Y,Y, , , , , , 
144.366666667,42.9833333330001,140,61160,61100,KUSHIRO KO,JP,42.983333,144.366667,42,59,N,144,22,E,158,96763/2,M,CB,G,N,N,Y,Y,Y,K,K,G,J,2,L,Y,Y,Y, ,Y,N,Y, ,Y, ,Y,Y, ,Y,Y,Y,Y,Y,Y,Y,Y, , , , ,Y,Y, ,N, , ,Y, ,Y, , ,Y,Y, , , ,Y,Y,Y,Y,Y,Y,C, ,M
141.633333333,42.6333333330001,141,61165,61100,TOMAKOMAI KO,JP,42.633333,141.633333,42,38,N,141,38,E,158,96961/2,S,CB,E,N,Y,N,Y,Y,G,G,G,F,2,L,N,Y,Y,N,Y,N,Y, ,Y, ,Y,Y, ,Y,Y,Y,Y,Y,Y, ,Y, , , , ,Y,Y, ,Y,Y,Y, , , , , , , , , , , ,Y,Y, , , ,C,S, 
140.966666667,42.3500000000001,142,61170,61100,MURORAN KO,JP,42.35,140.966667,42,21,N,140,58,E,158,96949,M,CN,G,Y,N,N,Y,Y,F,L,F,G,1,L,Y,Y,Y,N,Y,N,Y, ,Y, ,Y,Y,Y, ,Y,Y,Y,Y, ,Y,Y, , , , ,Y,Y, ,Y,Y,Y, , ,Y,Y,Y,Y, , , , , ,Y,Y, , , ,A,M,L
140.583333333,42.1166666670001,143,61180,61100,MORI,JP,42.116667,140.583333,42,7,N,140,35,E,158,96948,V,OR,P, ,Y, , , ,J,J,O, ,4,M, , , , , , , , , , , , , , , ,Y, , , ,Y, ,Y, , , , , , , , , , , , , , , , , , , , , , , , , , , , 
140.716666667,41.783333333,144,61190,61100,HAKODATE KO,JP,41.783333,140.716667,41,47,N,140,43,E,159,96947/3,M,CB,E,N,N,N,Y, ,K,E,G,G,1,L,Y,Y,Y,N,Y,N,Y, ,Y,N,Y,Y, ,Y,Y,Y,Y,Y,Y,Y,Y,Y,Y, , ,Y,Y, ,Y,Y,Y,Y,Y,Y, , ,Y, , , , ,Y,Y,Y,Y,Y,Y,B,M,L
140.116666667,41.8666666670001,145,61205,61100,ESASI KO,JP,41.866667,140.116667,41,52,N,140,7,E,159,96943,V,CB,P, , , , , ,J,F,P, ,2, ,Y, , , , , , , , , , , , , ,Y, , , , ,Y, ,Y, , , ,Y, , , , , , , , , , , , , , , , , , , , , , , , 
141.016666667,43.2,146,61230,61100,OTARU KO,JP,43.2,141.016667,43,12,N,141,1,E,159,96942,M,CB,G,N,Y,N, , ,J,H,G,M,0,L,N,Y,Y, ,Y,N,Y, ,Y, ,Y,Y, ,Y,Y,Y,Y,Y, ,Y,Y, , , , ,Y,Y, ,Y, ,Y,N, , ,Y,Y,Y,Y, , , ,Y,Y,Y,Y,Y,Y,C, ,S
141.633333333,43.95,147,61250,61100,RUMOI KO,JP,43.95,141.633333,43,57,N,141,38,E,159,96939,V,CB,G,Y,Y, , , ,L,D,J,M,0,L,N,Y,Y, ,Y,N,Y, ,Y, ,Y,Y, ,Y,Y,Y,Y,Y,Y,Y,Y, , , , ,Y, , ,Y, , ,N, , , , ,Y, , , , , ,Y,Y, , , ,C, ,S
141.683333333,43.4166666670001,148,61260,61100,WAKKANAI,JP,43.416667,141.683333,43,25,N,141,41,E,159,96938/7,S,CB,F,Y,Y,Y,Y, ,K,G,J, ,0,L,N, ,Y,N,Y,N,Y, , , ,Y,Y, ,Y,Y,Y,Y,Y,Y,Y,Y, , , , ,Y, , ,Y,Y,Y,Y, , , , ,Y, , , , ,Y,Y,Y, ,Y,Y,C,S,S
140.75,40.833333333,149,61270,61100,AOMORI KO,JP,40.833333,140.75,40,50,N,140,45,E,159,96944,S,CB,G,N,N,N,Y, ,E,E,H,L,1,L, ,Y,Y,N,Y,N,Y, ,Y, ,Y,Y, ,Y,Y,Y,Y,Y,Y,Y,Y, , , , ,Y, , ,N,Y,Y,N, ,Y,Y, ,Y,Y, , , ,Y,Y,Y, ,Y,Y,C,M, 
141.55,40.533333333,150,61280,61100,HACHINOHE KO,JP,40.533333,141.55,40,32,N,141,33,E,158,97041,S,CB,G,Y,Y,N,N,Y,G,B,H,M,1,L,Y,Y,Y,N,Y,N,Y, , , ,Y,Y, ,Y,Y,Y,Y,Y,Y,Y,Y, , , , ,Y, , ,Y,Y,Y, , , ,Y,Y,Y, , , , ,Y,Y,Y, ,Y,Y,C,S,M
141.983333333,39.6333333330001,151,61290,61100,MIYAKO,JP,39.633333,141.983333,39,38,N,141,59,E,158,97060,S,CB,F,Y,Y,N, , ,F,F,J, ,1,L,Y,Y,Y,N,Y,N,Y, , , ,Y,Y, ,Y,Y, , ,Y,N,Y,Y, , , , ,Y,N, ,Y,Y, , , , , ,Y,Y,Y,N,Y,Y, ,Y,Y, ,Y,N,C, ,S
141.9,39.266666667,152,61310,61100,KAMAISHI KO,JP,39.266667,141.9,39,16,N,141,54,E,158,97043,S,CN,F, , , ,Y, ,G,A,G,L,1,L,Y,Y,Y,N,Y,N,Y, ,Y,N,Y,Y, ,Y, , ,Y,Y, ,Y,Y,Y, , , ,Y, , ,Y,Y,Y,Y, , , ,Y,Y,Y, , , ,N,Y, ,Y, , ,C, ,M
141.733333333,39.0500000000001,153,61320,61100,OFUNATO,JP,39.05,141.733333,39,3,N,141,44,E,158,97063,S,CN,G,N,Y,N,Y,Y,G,E,L,J,1,L,Y,Y,Y,N,Y,N,Y,Y,Y, ,Y,Y,Y, ,Y, ,Y,Y, ,Y,Y, , , , ,Y, , , ,N,Y,N,N,Y,N,N,Y,Y, , , ,Y,Y,Y,Y,Y,Y,C,S,S
141.6,38.8666666670001,154,61325,61100,KESENNUMA KO,JP,38.866667,141.6,38,52,N,141,36,E,158,97063,V,CN,G, , ,N, ,Y,N,L,M,N,3,M,Y, ,Y, ,Y,N,Y, ,Y, ,Y,Y, ,Y,Y, ,Y,Y, ,Y,Y, , , , ,Y, , ,Y, , , , , , , ,Y, , , , , ,Y,Y, , , ,C, ,S
141.45,38.45,155,61330,61100,ONAGAWA,JP,38.45,141.45,38,27,N,141,27,E,158,97062/5,V,CB,G, , , , ,N,K,D,L, ,4, ,Y, , , , , , , , , , , , , ,Y,Y, , , ,Y,Y, , , , ,Y, , , , , , , , , , , , , , , , , , , , , , , ,S
141.316666667,38.4,156,61340,61100,ISHINOMAKI KO,JP,38.4,141.316667,38,24,N,141,19,E,158,97064/2,V,CN,F, , , ,Y,Y,H,G,H, ,2,L,Y,Y,Y, ,Y,N,Y, ,Y, ,Y,Y, ,Y,Y, ,Y,Y,Y,Y,Y,Y, , , ,Y, , ,Y,Y,Y, , , ,Y, ,Y, , , , ,Y,Y,Y, , , ,C, ,S
141.033333333,38.3166666670001,157,61350,61100,SENDAI-SHIOGAMA,JP,38.316667,141.033333,38,19,N,141,2,E,158,97082,S,CN,F,N,Y,N,Y, ,M,J,L,E,1,L,N,Y,Y,N,Y,N,Y, ,Y, ,Y,Y, ,Y,Y,Y,Y,Y,Y,Y,Y,Y, , , ,Y, , ,Y, , , , , , , ,Y,Y,Y,Y,Y,Y,Y, ,Y,Y,Y,A,S, 
140.9,36.9333333330001,158,61355,61100,ONAHAMA KO,JP,36.933333,140.9,36,56,N,140,54,E,158,97104,S,CB,G,Y,Y,N,Y, ,J,A,G,G,3,L,Y,Y,Y,N,Y,N,Y, ,Y, ,Y,Y, ,Y,Y,Y,Y, , , ,Y, , , , ,Y, , ,Y,Y,Y, , , ,Y,Y,Y,Y, , , , ,Y,Y, , , ,C, ,M
140.633333333,36.5000000000001,159,61356,61100,HITACHI,JP,36.5,140.633333,36,30,N,140,38,E,158,97100,V,RB,F, , , ,Y, ,L, ,J,M,1,L,Y, , , ,Y,N,Y, , , ,Y,Y, ,Y, , , ,Y, , , , , , , , , , ,Y,Y,Y, ,Y, ,Y,Y,Y, , , , , ,Y, , ,Y,Y,C, , 
140.7,35.9333333330001,160,61357,61100,KASHIMA KO,JP,35.933333,140.7,35,56,N,140,42,E,158,97108,S,CB,E, , , ,Y,Y,D,B,K,D,0,L,Y, ,Y,N,Y,N,Y,Y, , ,Y,Y, ,Y,Y,Y,Y,Y,Y,Y,Y,Y, , , ,Y, , ,Y,Y, , , , , , ,Y, , , , , ,Y,Y, , , ,C,S, 
140.85,35.7333333330001,161,61360,61100,CHOSHI,JP,35.733333,140.85,35,44,N,140,51,E,158,97101/0,V,RN,F, , , ,Y, ,N,O,O, ,2,L,Y, , , , , , , , , ,Y, , , , , ,Y, , ,Y, ,Y, , , ,Y, , , ,Y, , , , , ,Y,Y,Y, , , ,Y,Y, , , , , , , 
139.8,35.0000000000001,162,61370,61100,TATEYAMA KO,JP,35,139.8,35,0,N,139,48,E,158,97120,V,CN,F, , , , , ,E,E,O, ,1, ,Y, , , , , , , , , , , , , , ,Y, , ,Y,Y, ,Y, , , ,Y, , , , , , , , , , , , , , , ,Y,Y,Y, , , , , ,S
139.883333333,35.3666666670001,163,61372,61100,KISARAZU KO,JP,35.366667,139.883333,35,22,N,139,53,E,158,97141,V,CB,F,N,N,N,Y,Y,D,G,D, ,2,L, ,Y,Y,N,Y,Y,Y, , ,Y,Y,Y,Y,Y,Y,Y,Y,Y, , ,Y,Y, , , ,Y,N, ,N, ,Y,Y, , ,Y,Y,Y, , , , ,Y,Y,Y, ,N,N,C,M,S
140.066666667,35.583333333,164,61375,61100,CHIBA KO,JP,35.583333,140.066667,35,35,N,140,4,E,158,97151,S,CB,G,N,N,N,Y, ,E,A,E,D,2,L,Y, ,Y,N,Y,Y,Y, ,Y,N,Y,Y,Y,Y,Y,Y,Y,Y,Y,Y,Y, , , , ,Y, , ,Y,Y,Y,Y,Y,Y, , ,Y,Y, , , ,Y,Y,Y,Y, , ,A,L,S
139.983333333,35.6666666670001,165,61378,61100,KATSUNAN KO,JP,35.666667,139.983333,35,40,N,139,59,E,158,97157,S,CB,G, , , ,Y, ,J,G,J,K,9,L, , ,Y,N,Y,Y,Y, , , ,Y, , , , , ,Y,Y, ,Y,Y,Y, , , ,Y, , , , , , , , , , , , , , , ,Y,Y, , , , , , ,S
139.766666667,35.5000000000001,166,61385,61100,KAWASAKI KO,JP,35.5,139.766667,35,30,N,139,46,E,158,97150/1,L,CB,G,N,N,N,Y,Y,J,E,B,C,4,L,Y, ,Y,N,Y,Y,Y,Y, ,N,Y,Y, ,Y,Y,Y,Y,Y,Y,Y,Y, ,Y, , ,Y, , ,Y,Y, , , , , ,Y,Y,Y,Y,Y,Y,Y,Y,Y,Y,Y, ,A,M,M
139.583333333,35.45,167,61390,61100,YOKOHAMA KO,JP,35.45,139.583333,35,27,N,139,35,E,158,97149,L,CB,G,Y,N,N,Y,Y,J,E,G,D,2,L,Y,Y,Y,Y,Y,Y,Y, , , ,Y,Y, ,Y,Y,Y,Y,Y,Y,Y,Y,Y, , , ,Y,Y, ,Y, , ,Y,Y,Y,Y,Y,Y,Y,Y,Y,Y,Y,Y,Y,Y,Y,Y,A,L,S
142.1,50.7333333330001,168,61020,60840,MYS ROGATYY OKTYABRSKIY,RU,50.733333,142.1,50,44,N,142,6,E,155,96400,V,OR,P, , ,Y, , ,H,J,N, ,0, ,N, , , , , , , ,Y, , , , , , , , , , , , ,Y, , , ,Y, , , , , , , , , , , , , , , ,Y, , , , , ,D, , 
129.383333333,36.0500000000001,169,60410,60315,POHANG,KR,36.05,129.383333,36,3,N,129,23,E,157,95167,S,OR,G,N,Y,N,Y, ,E,A,D,M,1,L,Y, ,Y, ,Y,Y,Y, , , ,Y,Y, ,Y,Y, ,Y, ,Y,Y,Y,Y, , , ,Y,Y, ,Y, ,Y, , , ,Y,Y,Y, , , , ,Y,Y,Y, , , ,C, , 
129.116666667,37.5666666670001,170,60430,60315,MUKHO,KR,37.566667,129.116667,37,34,N,129,7,E,157,95162,V,CB,F,Y,N,N,Y, ,L,A,L, ,1,M, , ,Y,N,Y,Y,Y, , , ,Y,Y, ,Y, , ,Y, , , ,Y, , , , ,Y, , ,Y, ,Y, , , ,Y,Y,Y,N,N,N,N,Y,Y,Y, , , ,D, ,M
128.6,38.2,171,60435,60315,SOKCH'O HANG,KR,38.2,128.6,38,12,N,128,36,E,157,95169,V,CB,E, , , ,Y, ,L,L,L, ,0, , ,Y, , , , ,N, , , ,N, , ,Y, , , , ,Y, , ,Y, , , , , , , , , , , , , , , , , , , , ,Y, , , , ,A, , 
127.45,39.1666666670001,172,60440,60438,WONSAN,KP,39.166667,127.45,39,10,N,127,27,E,157,95202,S,CN,G, , ,Y,Y, ,J,M,N, ,0,L,Y, ,Y, ,Y, ,Y, , , , , , , ,Y,Y, , , , ,Y, , , , ,Y, , , , ,Y,Y, , ,Y,Y, , , , , , ,Y, , , , ,C, ,M
127.616666667,39.833333333,173,60450,60438,HUNGNAM,KP,39.833333,127.616667,39,50,N,127,37,E,157,95203,S,CB,F, , , , , ,G,O,M, ,1,M,Y, , , , ,Y,Y, , , ,Y, , , ,Y,Y, , ,Y,Y,Y,Y, , , ,Y,Y, , , ,Y, , , , ,Y,Y,Y, , , ,Y,Y, , , , ,C, ,M
128.65,40.2,174,60470,60438,CH'AHO,KP,40.2,128.65,40,12,N,128,39,E,157,95200,V,CB,F, , ,Y, , ,L,L,K, ,1, ,Y, , , , , , , , , , , , , , , , , , ,Y, ,Y, , , ,Y, , , , , , , , , , , , , , , ,Y,Y,N, , , , , ,S
129.816666667,41.766666667,175,60500,60438,CH'ONGJIN,KP,41.766667,129.816667,41,46,N,129,49,E,157,95246,S,CN,F, ,Y,Y,Y, ,E,A,L, ,1, ,Y,Y,Y, ,Y,Y,Y, , , ,Y,Y, , ,Y,Y,Y, ,Y,Y,Y,Y, , , ,Y, , , , ,Y, , , , ,Y,Y,Y, , , , ,Y,Y, ,Y,Y,B,S,M
130.8,42.65,176,60540,60530,POS'YET,RU,42.65,130.8,42,39,N,130,48,E,155,96039,V,CN,F, , ,Y,Y, ,A,G,L, ,1,M,Y, , ,N,Y,Y,Y, , , ,Y,Y, ,Y,Y,Y,Y,Y, ,Y,Y,N, , , ,Y,Y, ,N,Y,Y,Y, , ,Y,Y,Y, , , , ,Y,Y,Y, , , ,N, ,S
131.9,43.1166666670001,177,60610,60530,VLADIVOSTOK,RU,43.116667,131.9,43,7,N,131,54,E,155,96042,L,CN,G, , ,Y,Y, ,D,A,H,K,0,L,Y,Y,Y,Y,Y,Y,Y, ,Y, ,Y,Y,Y, ,Y,Y,Y,Y,Y,Y,Y, ,Y, , ,Y,Y, ,Y,Y,Y, , , , ,Y,Y,Y,Y,Y,Y,Y,Y,Y,Y,Y,Y,A,S, 
132.683333333,42.8666666670001,178,60720,60530,BUKHTA GAYDAMAK,RU,42.866667,132.683333,42,52,N,132,41,E,155,96043,V,CN,P, , ,Y, , ,H,H,O, ,0, , , , , , , , , , , , , , , ,Y, ,Y, , ,Y, ,Y, , , ,Y, , , , , , , , , , , , , , , ,Y, , , , , ,C, , 
132.883333333,42.8000000000001,179,60730,60530,NAKHODKA,RU,42.8,132.883333,42,48,N,132,53,E,155,96044,S,CN,F,N,N,N,Y, ,K,D,J,M,1,M,Y, ,Y,N,Y,Y,Y, ,Y, ,Y, , ,Y, , ,Y, ,Y,Y,Y,Y, , , ,Y,N, ,Y,Y,Y,Y,Y,Y,Y,Y,Y, , ,Y,Y,Y,Y,Y,Y,Y,Y,A, , 
140.283333333,48.966666667,180,60795,60530,SOVETSKAYA GAVAN,RU,48.966667,140.283333,48,58,N,140,17,E,155,96140,S,CN,G, , ,Y, , ,C,A,K,K,1,M,Y, ,Y, ,Y,Y,Y, ,Y, , , , , , , ,Y, , ,Y,Y, , , , ,Y, , , , ,Y, ,Y,Y,Y,Y, , , , , , ,Y,Y, , , ,B,M,S
140.283333333,49.083333333,181,60800,60530,BUKHTA VANINO,RU,49.083333,140.283333,49,5,N,140,17,E,155,96140,V,CN,F, , , ,Y, ,D,F,J,K,2,M, , ,Y,N,Y,Y,Y, , , ,Y,Y,Y,Y, , ,Y, ,Y,Y,Y, , , , ,Y,Y, ,Y,Y,Y, , ,Y,Y,Y,Y, , , , , ,Y,Y, , , ,C, , 
140.783333333,51.466666667,182,60810,60530,DE KASTRI,RU,51.466667,140.783333,51,28,N,140,47,E,155,96400,M,CN,P, , ,Y,Y, ,M,K,K,K,2,M,Y, ,Y, ,Y,Y,Y, , , ,Y,Y, , ,Y,Y, , , , ,Y,Y, , , ,Y, , , , ,Y, , , , ,Y, , , , , ,Y,Y,Y, , , ,C, , 
140.733333333,53.1333333330001,183,60820,60530,NIKOLAYEVSK NA AMUR,RU,53.133333,140.733333,53,8,N,140,44,E,155,96381,V,RN,G, ,Y,Y,Y, ,M,C,N, ,1,M,Y,Y,Y, ,Y,Y,Y, ,Y, , , , ,Y, , ,Y,Y, , ,Y, , , , ,Y,Y, , ,Y,Y,Y, , ,Y,Y,Y, , , , , ,Y,Y, , , ,C,S, 
143.0,53.5500000000001,184,60860,60840,OKHA,RU,53.55,143,53,33,N,143,0,E,155,96340,V,CN,F, , ,Y, , ,M,B, , ,3,M, , , , , , , , , , , , , , ,Y,Y,Y, , ,Y, ,Y, , , ,Y, , , , , , , , , , , , , , , , , , , , , ,C, , 
143.133333333,49.216666667,185,60880,60840,PORONAYSK,RU,49.216667,143.133333,49,13,N,143,8,E,155,96240,V,OR,F, , ,Y,Y, ,H,K,P, ,3,M,Y, , , , ,N,N, , , , , , , , , ,Y, , ,Y, ,Y, , , ,Y, , , , ,Y, , , , ,Y, , , , , ,Y,N,N,N, , ,N, , 
142.766666667,46.6166666670001,186,60920,60840,KORSAKOV,RU,46.616667,142.766667,46,37,N,142,46,E,155,96200,S,CB,P,N,Y,Y, ,N,G,K,L,M,1,M,Y, ,Y,Y,Y,Y,Y, ,Y, ,Y, ,Y, ,Y,Y,Y,Y,Y,Y,Y, ,Y, , ,Y, , ,Y,Y,Y,Y, ,Y,Y,Y,Y, , , , ,Y,Y,Y, , , ,C, ,S
141.866666667,46.6666666670001,187,60930,60840,NEVELSK,RU,46.666667,141.866667,46,40,N,141,52,E,155,96181/3,V,CB,P,Y,Y, ,Y, ,N,D,M, ,1,M, , ,Y,N,Y,Y,Y,Y,Y, ,Y, , , ,Y, ,Y, , ,Y,Y,Y, , , ,Y, , , , ,Y, , , , ,Y, ,Y,Y,Y,Y, ,Y, ,Y,Y,Y,B,S,S
142.05,47.0500000000001,188,60940,60840,KHOLMSK,RU,47.05,142.05,47,3,N,142,3,E,155,96181,S,CB,F,N,Y,Y,Y,Y,M,J,M, ,0,M,Y, , , ,Y,Y,Y, ,Y, ,Y, ,Y, , , ,Y, , ,Y,Y, , , , ,Y,Y, ,N,Y,Y, , , ,Y,Y, , , , , ,Y,Y,Y,N, , ,C, ,M
142.033333333,49.083333333,189,60980,60840,UGLEGORSK,RU,49.083333,142.033333,49,5,N,142,2,E,155,96181C,V,OR,P,Y, ,Y,Y,Y,D,D,O, ,1,M,Y, , , ,Y, ,N, , , ,Y, , , ,Y,Y,Y, , ,Y, ,Y, , , ,Y, , , , ,Y,Y, , ,Y,Y, , , , , ,Y,Y, , , , ,C, ,S
142.133333333,49.45,190,60990,60840,LESOGORSK,RU,49.45,142.133333,49,27,N,142,8,E,155,96141,V,OR,P, , ,Y,Y, ,H,H, , ,2, ,Y, , , , , , , , , , , , , , ,Y, , , ,Y, ,Y, , , ,Y, , , , , , , , , , , , , , , ,Y, , , , , ,D, , 
128.566666667,35.1833333330001,191,60380,60315,MASAN,KR,35.183333,128.566667,35,11,N,128,34,E,157,95147,M,CN,G,Y,Y,N,Y,Y,K,H,J,N,2,L,Y,Y,Y,N,Y,Y,Y, , , ,Y, , ,Y,Y, ,Y, , ,Y,Y,Y, , , ,Y, , ,Y, ,Y, , ,Y,Y,Y,Y,Y, , , ,Y,Y,Y, , , ,C,S,S
129.033333333,35.1000000000001,192,60390,60315,PUSAN,KR,35.1,129.033333,35,6,N,129,2,E,157,95151/2,L,CB,E,N,N,N,Y,Y,H,H,F,M,1,L,Y,Y,Y,Y,Y,Y,Y, ,Y, ,Y, , ,Y,Y,Y,Y, ,Y,Y,Y, , , , ,Y,Y, ,Y,Y,Y,Y,Y,Y,Y,Y,Y,Y, , , ,Y,Y,Y,Y,Y,Y,B,L,M
129.4,35.45,193,60400,60315,ULSAN,KR,35.45,129.4,35,27,N,129,24,E,157,95160/1,M,RN,E,N,Y,N,Y,Y,D,A,E,A,1,L,Y,Y,Y, ,Y,Y,Y, ,Y, ,Y,Y, ,Y,Y,Y,Y, ,Y,Y,Y, , , , ,Y,Y, , , ,Y,Y, ,Y,Y,Y,Y, , , , ,Y,Y,Y,Y, , ,C,M,M
120.65,28.016666667,194,59910,59850,WENZHOU,CN,28.016667,120.65,28,1,N,120,39,E,157,94187,M,RN,G,Y,Y, ,Y, ,O,B,H,J,4,M,Y, , , ,Y,Y,Y,Y,Y, ,Y,Y, ,Y, , ,Y, ,Y, ,Y,Y, , , ,Y, , ,Y,Y, , , , ,Y,Y,Y, , , , ,Y,Y, ,Y, ,Y,C,S, 
121.7,29.95,195,59950,59850,ZHEN HAI,CN,29.95,121.7,29,57,N,121,42,E,157,94208,V,RN,G,Y,N,N,Y, ,N,O,M,G,2,M,Y, , , ,Y,Y,Y, , , ,Y,Y, ,Y, , ,Y, ,Y,Y,Y, , , , ,Y, , ,Y, ,Y, , , , ,Y,Y, , , , ,Y,Y,Y, , , ,B, ,M
122.1,30.0000000000001,196,59960,59850,ZHOUSHAN,CN,30,122.1,30,0,N,122,6,E,157,94188,S,CN,G,Y, , ,Y,Y,B,B,A,O,1,L,Y, ,Y, ,Y,Y,Y, , , ,Y,Y, ,Y, , ,Y, , , , ,Y, , , ,Y,Y, ,Y,Y,Y, , , , ,Y,Y, , , , ,Y,Y, ,Y, , ,C,M, 
120.233333333,31.9166666670001,197,59985,59850,JIANGYIN,CN,31.916667,120.233333,31,55,N,120,14,E,157,UK1642,S,RN,F,Y, , , , ,M,N,L,N,2,M,Y,Y, , ,Y,Y,Y, , , ,Y,Y, ,Y, , ,Y, ,Y, ,Y, , , , , , , , ,Y,Y,Y,Y,Y, ,Y,Y, , , , ,Y,Y,Y, , , ,C, , 
119.85,32.283333333,198,59987,59850,GAOGANG,CN,32.283333,119.85,32,17,N,119,51,E,157,UK1642,S,RN,F, , ,N,Y,N,K,K,L,M,2,L,Y,Y, , ,Y,Y,Y, , , ,Y,Y, ,Y, , ,Y, , , ,Y,Y, , , , , , , , ,Y,Y, ,Y,Y,Y, , , , , ,Y,Y,Y, , , ,C, , 
119.433333333,32.266666667,199,59988,59850,YANGZHOU,CN,32.266667,119.433333,32,16,N,119,26,E,157,UK1641,S,RN,F, , , ,Y,Y,N,K,K,M,2,M,Y,Y, , , ,Y,Y, , , ,Y,Y, ,Y, ,Y, ,Y, , , , , , , , , , ,N, ,Y,Y, , ,Y,Y,Y, , , , ,Y,Y,Y, , , ,C, , 
119.433333333,32.216666667,200,59995,59850,ZHENJIANG,CN,32.216667,119.433333,32,13,N,119,26,E,157,UK1642,S,RN,F,Y, ,N, ,Y,K,L,J,L,1,M,Y,Y, , ,Y,Y,Y, , , ,Y,Y, ,Y, , ,Y, , , , ,Y, ,Y, ,Y,Y, , , ,Y,Y,Y,Y,Y, ,Y, , , , ,Y,Y,Y, , , ,C, ,M
118.75,32.083333333,201,60000,59850,NANJING,CN,32.083333,118.75,32,5,N,118,45,E,157,522,V,RN,F,Y, ,Y,Y, ,K,L,K,K,1,L,Y,Y,Y, ,Y,Y,Y,Y,Y, ,Y,Y, ,Y,Y,Y,Y, ,Y,Y,Y,Y, , , ,Y,N, ,N,Y, ,Y, ,Y,Y,Y,Y, , , , ,Y,Y,Y,Y, , ,C, ,S
118.366666667,31.333333333,202,60010,59850,WU HU,CN,31.333333,118.366667,31,20,N,118,22,E,157,TW 153,S,RN,F, , , ,Y, ,M,L,N, ,1, , , , , ,Y,Y,Y, , , ,Y,Y, , , , ,Y, ,Y,Y,Y, , , , ,Y, , , ,Y,Y,Y, , ,Y,Y, , , , , ,Y,Y, , , , ,N, , 
117.033333333,30.516666667,203,60030,59850,ANKINGCHENG,CN,30.516667,117.033333,30,31,N,117,2,E,157,TW 159,V,RN,F, , , , , ,O,M,P,N,16,M,Y, , , ,Y,Y,Y, , , ,Y,Y,Y, , , ,Y,Y,Y,Y,Y,Y, , , ,Y, , , ,Y,Y,Y, , , ,Y,Y, , , , ,Y,Y,Y,Y, , ,N, ,S
114.283333333,30.583333333,204,60060,59850,HANKOW,CN,30.583333,114.283333,30,35,N,114,17,E,157,TW 169,M,RN,F, , , ,Y,Y,O,M,N,H,38, , , ,Y, ,Y,Y,Y, , , ,Y,Y, , , , ,Y, ,Y,Y,Y, , , , , , , , , ,Y,Y, ,Y,Y,Y,Y, , , , ,Y,Y,N,Y,Y,Y,B, , 
108.433333333,30.8166666670001,205,60110,59850,WANXIAN,CN,30.816667,108.433333,30,49,N,108,26,E,157,522,V,RN,G, , , , , ,P,H, , ,90, , , , , , , , , , , , , , , , , ,Y,Y,Y,Y, , , , , , , , , ,Y,Y, , , ,Y, , , , , , , , ,Y, , , ,D, ,S
106.633333333,29.5666666670001,206,60120,59850,CHUNG CHING,CN,29.566667,106.633333,29,34,N,106,38,E,157,522,V,RN,F,Y,N,N,Y, ,P, , , ,20, , , , , ,Y,Y, , , , ,Y,Y, ,Y, , ,Y, , ,Y, , , , , , , , , , ,Y, ,Y, , , , , , , , ,Y,Y,Y, , , ,C, , 
119.45,34.7333333330001,207,60130,59850,LIANYUNGANG,CN,34.733333,119.45,34,44,N,119,27,E,157,94281,S,CB,F, , , ,Y, ,F,F,H, ,5,M,Y,Y, , ,Y,Y,Y, ,Y, ,Y,Y, ,Y, , ,Y, , ,Y,Y,Y, , , ,Y, , ,Y,Y,Y,Y,Y, ,Y, ,Y, , , , ,Y,Y,Y,Y, , ,C, ,M
120.266666667,36.033333333,208,60140,59850,QINGDAO GANG,CN,36.033333,120.266667,36,2,N,120,16,E,157,94283,L,OR,E,Y,Y,Y,Y, ,E,A,D,K,4,M,Y,Y,Y, ,Y,Y,Y, ,Y, ,Y,Y, ,Y, , ,Y, ,Y,Y,Y, , , , ,Y,Y, ,Y,Y,Y,Y,Y,Y,Y,Y,Y, , ,Y,Y,Y, ,Y, ,Y,Y,B,M,S
122.1,37.5000000000001,209,60150,59850,WEIHAI,CN,37.5,122.1,37,30,N,122,6,E,157,94427,M,CN,E, ,Y, ,Y, ,A,C,J, ,1,M, , , , ,Y,Y,Y, ,Y, ,Y,Y, ,Y, , ,Y, , , , ,Y, , , ,Y, , , ,Y,Y, , , ,Y,Y, , , , , ,Y,Y,Y, ,Y, , , , 
121.45,37.5500000000001,210,60160,59850,YANTAI,CN,37.55,121.45,37,33,N,121,27,E,157,94322,S,CB,G,Y, ,Y,Y, ,G,F,G, ,2,M, , , ,N,Y,Y,Y, ,Y, ,Y,Y,Y, , , ,Y,Y,Y,Y,Y, , , , ,Y,Y, ,Y, ,Y, , , , ,Y,Y, , , , ,Y,Y, ,Y,Y,Y,A, ,M
120.283333333,37.6333333330001,211,60170,59850,LONGKOU GANG,CN,37.633333,120.283333,37,38,N,120,17,E,157,94420,S,CN,F, , ,Y,Y, ,J,G,K, ,1,M,Y,Y, ,N,Y,Y,Y, ,Y, ,Y,Y, ,Y, , ,Y, , , ,Y,Y, , , ,Y,Y, ,Y, ,Y, , ,Y, ,Y,Y, , , , ,Y,Y,Y, , , ,C,S, 
117.666666667,38.966666667,212,60180,59850,DAGU TANGGU,CN,38.966667,117.666667,38,58,N,117,40,E,157,94360,V,RN,F, , ,Y,Y, ,O,F,N, ,2,M, ,Y,Y, ,Y,Y, , ,Y, ,Y,Y,Y, ,Y,Y,Y,N, ,Y,Y, , , , ,Y, , , ,Y, , , , ,Y, , , , ,Y,Y,Y,Y,Y,Y, , ,A,M,L
117.833333333,38.966666667,213,60190,59850,TIANJIN XIN GANG,CN,38.966667,117.833333,38,58,N,117,50,E,157,94364,L,RN,E,Y, ,Y,Y, ,G,F,B,H,3,L,Y,N,Y,N,Y,Y, , ,Y, ,Y,Y, ,Y, , ,Y,Y,Y,Y,Y,Y, , , ,Y,Y, ,N,Y,Y, , , ,Y,Y,Y,Y, , , ,Y,Y,Y,Y, , ,C,L,L
120.983333333,40.7,214,60210,59850,HULUDAO GANG,CN,40.7,120.983333,40,42,N,120,59,E,157,94380,V,CB,G, ,Y,Y, , ,L,N,L,L,0, , , , , , ,Y,Y, ,Y, , , , , , , , , , ,Y,Y, , , , ,Y, , , , , ,Y, , , ,Y, , , , , ,Y,Y,Y, , , ,B,L,S
122.233333333,40.6833333330001,215,60220,59850,YINGKOU,CN,40.683333,122.233333,40,41,N,122,14,E,157,94384,S,CB,F, , ,Y, , ,N,L,N,J,2,L, ,Y,Y, ,Y,Y,Y, , , ,Y,Y, ,Y, , ,Y, , ,Y,Y,Y,Y, , ,Y, , , ,Y,Y, , , ,Y,Y,Y, , , , ,Y,Y,Y,Y, , ,C, ,S
121.25,38.783333333,216,60240,59850,LUSHUN,CN,38.783333,121.25,38,47,N,121,15,E,157,94421,V,CB,F,Y, , ,Y, ,L,K, , ,5, , ,Y,Y,N,Y,Y,Y, ,Y, ,Y,Y, ,Y, , ,Y,Y, ,Y,Y, , , , , , , , ,Y,Y,Y, , , , , , , , , ,Y,Y,Y, , , ,C, ,M
121.666666667,38.9166666670001,217,60250,59850,DALIAN,CN,38.916667,121.666667,38,55,N,121,40,E,157,94423,L,CB,G,N,Y,Y,Y, ,A,A,E,A,3,L,Y,Y,Y,N,Y,Y,Y, ,Y, ,Y,Y, ,Y, , ,Y,Y,Y,Y,Y,Y, , , ,Y,Y, ,Y,Y,Y,Y,Y,Y,Y, ,Y,Y, ,Y,Y,Y,Y,Y, ,Y,Y,A,M,M
125.4,38.716666667,218,60280,60270,NAMPO,KP,38.716667,125.4,38,43,N,125,24,E,157,95043,S,RN,F,N,N,Y,Y, ,B,F,H, ,3,L,Y,Y,Y,N,Y,Y,Y, , , ,Y, , ,Y, , ,Y, ,Y,Y,Y,Y, , , ,Y,N, , ,Y,Y, ,N,N, ,Y,Y,Y, , , , ,Y,Y,Y, , ,C,M,M
125.616666667,38.7333333330001,219,60290,60270,KYOMIP'O,KP,38.733333,125.616667,38,44,N,125,37,E,157,95040,V,RN,F, , ,Y, , ,K,K, , ,19, ,Y, , , , , ,Y, , , , , , , , ,Y, , , ,Y, ,Y, , , ,Y, , , ,Y,Y, , , , ,Y,Y,Y, , , , ,Y, , , , , , , 
125.7,38.0000000000001,220,60310,60270,HAEJU HANG,KP,38,125.7,38,0,N,125,42,E,157,95060,S,CB,F,Y,N,Y,Y, ,O,K,O, ,6, ,Y, ,Y,N,Y,Y,Y, , , , , , , ,Y,Y, , , ,Y,Y,Y, , , ,Y, , , , ,Y,Y, , , ,Y,Y,Y, , , , ,Y, , , , ,C, ,S
126.616666667,37.466666667,221,60320,60315,INCHON,KR,37.466667,126.616667,37,28,N,126,37,E,157,95067,L,RB,G,Y,Y,N,Y, ,J,A,K,A,9,M,Y,Y,Y,N,Y,Y,Y, ,Y, ,Y,Y, ,Y,Y,Y,Y, ,Y,Y,Y,Y, , , ,Y, , ,Y,Y,Y,Y,Y,Y,Y,Y,Y, , , , ,Y,Y,Y,Y,Y,Y,C,S,M
126.616666667,35.9833333330001,222,60330,60315,KUNSAN,KR,35.983333,126.616667,35,59,N,126,37,E,157,95082/7,S,RN,F,N,N,N,Y, ,K,K,J,O,6,L, , ,Y,N,Y,Y,Y, , , ,Y,Y,Y, , , ,Y,Y,Y,Y,Y, , , , ,Y,Y, ,Y, ,Y,Y, ,Y,Y,Y,Y, , , , ,Y,Y,Y,Y, , ,C, ,S
126.383333333,34.783333333,223,60340,60315,MOKPO,KR,34.783333,126.383333,34,47,N,126,23,E,157,95086,M,RN,G,Y,N,N,Y, ,B,B,G, ,3,M,Y,N,Y,N,Y,Y,Y, , , ,Y,Y,Y, , , ,Y,Y, ,Y,Y,Y, , , ,Y,Y, ,Y, ,Y,Y, ,Y, ,Y,Y, , , , ,Y,Y,Y,Y,Y,Y,C, ,M
126.533333333,33.516666667,224,60350,60315,CHEJU HANG,KR,33.516667,126.533333,33,31,N,126,32,E,157,95103,S,CB,G,Y, , ,Y,N,L,M,J,L,2,M,N, ,Y, , ,N,Y, , , ,Y,Y, , , , ,Y,Y,Y, , ,Y, , , ,Y, , ,Y, , , , , , , ,Y, , , , , ,Y,Y, , , ,C,S,S
127.75,34.7333333330001,225,60370,60315,YOSU,KR,34.733333,127.75,34,44,N,127,45,E,157,95138,S,CB,F, , , ,Y, ,A,A,A,A,2,L,Y,Y,Y,N,Y,Y,Y, ,Y, ,Y,Y, ,Y, , ,Y, ,Y,Y,Y,Y, , , ,Y, , ,Y, ,Y,Y,Y,Y, , ,Y,Y, , , ,Y,Y,Y,Y,Y,Y,C,L,S
125.5,9.78333333300003,226,59340,57960,SURIGAO CITY,PH,9.783333,125.5,9,47,N,125,30,E,162,92115,V,OR,G,Y,Y, ,Y,Y,A,A,L, ,3, , , , , ,Y,Y,Y, ,Y, ,Y, , , , , ,Y, ,Y, , ,Y, , , ,Y, , , ,Y, , , , , ,Y,Y, , , , , ,Y,Y, , , , , , 
125.333333333,8.98333333300008,227,59345,57960,NASIPIT PORT,PH,8.983333,125.333333,8,59,N,125,20,E,162,92310,V,RN,F,N,N,N,Y,Y,M,A,H, ,2,M,Y,Y,Y, ,Y,Y,Y, ,Y,N,Y,N, ,Y,N, ,Y,N,Y, ,Y,Y, , , ,Y,N, ,N,Y,Y,N,N,N,Y,Y,Y, , , , , ,Y, ,Y,N,N,C, , 
126.333333333,8.36666666700006,228,59380,57960,HINATUAN,PH,8.366667,126.333333,8,22,N,126,20,E,162,92130,V,CN,F, , , ,Y, ,P,M,P, ,4, , , , , , , , , , , , , , , , , ,Y, , , , ,Y, , , ,Y, , , , , , , , , , , , , , , ,Y, , , , , , , , 
126.316666667,8.23333333300008,229,59385,57960,MANGAGOY,PH,8.233333,126.316667,8,14,N,126,19,E,162,92131,S,CN,G,Y,Y,N,Y, ,L,H,L, ,3,M,Y, ,Y,N,Y,Y, , , , ,Y,Y,Y, , ,Y,Y,N,Y, ,Y, , , , ,Y, , ,N, , ,Y, , ,Y,Y,Y, , , , , ,Y,Y,Y, ,Y,C, , 
126.216666667,6.95000000000005,230,59400,57960,MATI,PH,6.95,126.216667,6,57,N,126,13,E,162,92160,V,OR,E, , , , , ,A,A,M,G,4,L, , , ,N,Y,Y, , , ,N,N, , , , , ,Y, ,Y, ,Y, , , , ,Y, , , , , , , , , , ,Y, , , , ,Y,Y,Y, , , ,C, , 
125.616666667,7.06666666700005,231,59430,57960,DAVAO,PH,7.066667,125.616667,7,4,N,125,37,E,162,92153,S,CN,G,Y,Y,N, , ,N,B,K,K,2,L,Y,Y,Y,N,Y,Y, , ,Y, ,Y,Y,Y, , , ,Y, ,Y, ,Y, , , , ,Y,Y, ,Y,Y,Y, , , ,Y, ,Y, , , , ,Y,Y,Y,Y, , ,C,S, 
125.183333333,6.11666666700006,232,59485,57960,GENERAL SANTOS,PH,6.116667,125.183333,6,7,N,125,11,E,162,92170,V,CN,G,N,N,N, , ,N,A,L, ,2,M,Y, ,Y,N,Y,Y,Y, , ,N,Y,Y, , , , ,Y, ,Y, ,Y,Y, , , ,Y,Y, ,N, ,Y, , , , ,Y,Y,Y,N,N,N, ,Y,Y, ,N,N, , , 
124.216666667,7.35000000000002,233,59500,57960,POLLOC (COTABATO),PH,7.35,124.216667,7,21,N,124,13,E,162,92190,V,OR,F, , , , , ,A,A,K, ,5, , , , , ,Y,Y,Y, , ,N,N, , , ,N, ,N,N,Y, , ,Y, , , ,Y,Y, ,N,Y,Y, , ,Y,Y,Y,Y, , , , ,Y,N,N,N, , , , , 
123.433333333,7.83333333300004,234,59530,57960,PAGADIAN,PH,7.833333,123.433333,7,50,N,123,26,E,162,92190,V,CN,G, , , ,Y, ,A,A,N, ,5,L,Y, , , , , , , , , , , , , , ,Y, , , , , ,Y, , , ,Y, , , , , , , , , , , , , , , ,Y, , , , , , , , 
123.166666667,7.58333333300004,235,59550,57960,MARGOSATUBIG,PH,7.583333,123.166667,7,35,N,123,10,E,162,92190,V,CN,E, , , ,Y, ,E,A,O, ,5, , , , , , , , , , , , , , , , , ,Y, , , , ,Y, , , ,Y, , , , , , , , , , , , , , , ,Y,Y, , , , , , , 
122.683333333,7.78333333300003,236,59575,57960,SANTA CLARA,PH,7.783333,122.683333,7,47,N,122,41,E,162,92200,V,CN,F, , , , , ,K,H,M,M,0, , , , , , , ,Y, , , , , , , , , , , ,Y, ,Y, , , , ,Y, , , , , , , , , ,Y, , , , , ,Y, , , , , , , , 
122.066666667,6.90000000000003,237,59580,57960,ZAMBOANGA,PH,6.9,122.066667,6,54,N,122,4,E,162,92214,S,OR,G,Y,Y,N,Y, ,A,A,L,N,1,M,N,Y,Y,N,Y,Y,Y, ,Y,N,N,Y,Y, ,Y,Y,Y, ,Y, ,Y, , , , ,Y,Y, ,N,N,N,N, , , , ,Y, , , , , ,Y,Y, ,Y,Y,C,M, 
123.866666667,8.33333333300004,238,59670,57960,JIMENEZ,PH,8.333333,123.866667,8,20,N,123,52,E,162,92293,V,CN,G, ,Y, ,Y, ,A,B,J, ,3,L, , , , , ,Y,Y, , , ,Y, , , , ,Y, , , , , ,Y, , , ,Y,N, ,N, , , , , , , , , , , , , , ,Y, , , , , , 
123.85,8.13333333300005,239,59680,57960,PORT OZAMIS,PH,8.133333,123.85,8,8,N,123,51,E,162,92296,V,OR,E, , , ,Y, ,K,E,N, ,1,M,Y, ,Y, ,Y, ,Y,Y, , ,Y,Y, ,Y,Y,Y,Y,Y,Y, ,Y, , , , ,Y,Y, ,N, , , , , , , ,Y,Y,N,N,N,Y,Y,Y,Y, , ,C, , 
124.233333333,8.23333333300008,240,59700,57960,ILIGAN,PH,8.233333,124.233333,8,14,N,124,14,E,162,92293,V,OR,F,N,N,N,Y,N,A,A,K, ,2,M,N, ,N,N,Y,Y,Y, ,Y,Y,Y,Y, , ,Y,Y,Y, ,Y, ,Y, , , , ,Y,N, ,N,Y,Y, , ,Y,Y, ,Y, , , , ,N,Y,Y,Y, , ,N, , 
124.666666667,8.50000000000006,241,59710,57960,CAGAYAN DE ORO,PH,8.5,124.666667,8,30,N,124,40,E,162,92293,M,CN,G,Y,Y, ,Y, ,A,A,J,N,2,M,Y, ,Y,N,Y,Y,Y, ,Y, ,Y,Y, , ,Y,Y,Y, ,Y, ,Y, ,Y, , ,Y,Y, ,Y,Y,Y, , ,Y,Y,Y,Y, , , , ,Y,Y,Y,N, , ,C,S, 
124.75,8.51666666700004,242,59720,57960,BUGO,PH,8.516667,124.75,8,31,N,124,45,E,162,92290,V,CN,G, , , , , ,A,A,K,L,3,M,Y, ,Y, , ,Y, , , , , ,Y, , , ,Y,Y, , , ,Y, , , , ,Y, , ,N, , , , , , , ,Y, , , , ,Y,Y, , , , ,C, , 
124.766666667,8.58333333300004,243,59725,57960,VILLANUEVA,PH,8.583333,124.766667,8,35,N,124,46,E,162,92290,V,OR,G, , , ,Y, , ,A,A, ,0,M, , , ,N, ,Y,Y, , , ,Y,Y, , ,N, ,Y, , , ,Y,Y, , , ,Y, , , ,Y,Y, , , ,Y, ,Y, , , , , ,Y,Y,Y, , ,N, , 
125.533333333,8.95000000000005,244,59760,57960,BUTUAN CITY,PH,8.95,125.533333,8,57,N,125,32,E,162,BA957,V,RN,E, , , , ,Y,O,P,N, ,3, , , , , , , ,Y, , , , , , , , ,Y, ,Y,Y, , ,Y, , , ,Y, , , , , , , , , , , , , , , ,Y, , ,Y, , ,D, , 
121.966666667,6.71666666700003,245,59770,57960,BASILIAN CITY (ISABELA),PH,6.716667,121.966667,6,43,N,121,58,E,162,92216,V,OR,E, ,Y, ,Y, ,K,G,L,N,1,M,Y, , , , ,N,Y, ,Y, ,Y, , , , , ,Y, ,Y, ,Y, , , , ,Y, , , , ,Y, , , , ,Y,Y, , , , ,Y,Y, , , , ,C, , 
121.866666667,6.55000000000007,246,59780,57960,PORT HOLLAND,PH,6.55,121.866667,6,33,N,121,52,E,162,92210,V,CN,G, , , ,Y, ,L,J,L, ,3, , , , , ,Y, ,Y, ,Y, , , , , , ,Y,Y, , , ,Y, , , , ,Y, , ,N, , , , , , , ,Y, , , , ,Y,Y, , , , ,C, , 
121.0,6.05000000000007,247,59800,57960,JOLO,PH,6.05,121,6,3,N,121,0,E,162,92242,V,OR,G,Y,Y,N,Y, ,A,B,L,N,1,M,N, ,Y,N,Y,Y,Y, ,N,N,N,Y,Y,Y, , ,Y, ,Y, ,Y, , , , ,Y,Y, ,N, , , , , , , ,Y, , , ,Y, ,Y,Y, , , ,N, ,S
120.816666667,5.55000000000007,248,59820,57960,SIASI,PH,5.55,120.816667,5,33,N,120,49,E,162,92240,V,CN,P, , , ,Y, ,K,G,O, ,4, , , , , , , , , , , , , , , , ,Y, , , , , , , , , ,Y, , , , , , , , , , , , , , , ,Y,Y, , , , ,D, , 
119.3,26.083333333,249,59860,59850,FUZHOU,CN,26.083333,119.3,26,5,N,119,18,E,157,94004,V,RN,G, , , ,Y,N,J,J,J,J,3,M, ,Y, , ,Y,Y,Y, ,Y, ,Y,Y, ,Y, , ,Y, ,Y,Y,Y,Y, , , ,Y, , , ,Y, ,Y, ,Y,Y,Y,Y, , , , ,Y,Y,Y, ,Y, ,C, , 
124.6,11.0000000000001,250,58770,57960,ORMOC,PH,11,124.6,11,0,N,124,36,E,162,92090,V,OR,P, , , ,Y, ,A,A,O, ,4, , , , , ,Y,Y,Y, , , , , , , ,Y,Y,Y, , , , ,Y, , , ,Y, , , , , , , , , , ,Y, , , , ,Y,Y,Y, , , , , , 
124.383333333,11.0500000000001,251,58800,57960,PALOMPON,PH,11.05,124.383333,11,3,N,124,23,E,162,92380,V,CN,G, , , ,Y, ,A,F,M, ,4, , , , , , ,Y, , , , , , , , , ,Y,Y, , , ,Y, , , , ,Y, , , , ,Y, , , , ,Y,Y, , , , ,Y,Y, , , , , , , 
123.85,9.65000000000003,252,58870,57960,TAGBILARAN,PH,9.65,123.85,9,39,N,123,51,E,162,92320,S,OR,G, , , ,Y, ,M,A,N, ,1, , ,Y,Y, ,Y, ,Y,Y, , ,Y, , ,Y, , ,Y, ,Y, ,Y, , , , ,Y, , , , ,Y, , , , ,Y, , , , , , , ,Y, , , ,N, , 
123.966666667,9.95000000000005,253,58890,57960,TUBIGAN,PH,9.95,123.966667,9,57,N,123,58,E,162,92320,V,OR,F, , , ,Y, ,M,N,L, ,3, , , , , , , , ,Y, , , , , , ,Y, , , , , , ,Y, , , ,Y, , , , , , , , , , , , , , , , ,Y, , , , ,D, , 
123.9,10.3000000000001,254,58960,57960,CEBU,PH,10.3,123.9,10,18,N,123,54,E,162,92385/3,L,CB,E, , ,N,Y,Y,K,G,K,M,2,M,Y, ,Y,Y,Y,Y,Y, , , ,Y, , ,Y, , ,Y, ,Y, ,Y,Y, , , ,Y,Y, ,Y,Y,Y, , , ,Y, ,Y,Y,N,Y,Y, ,Y,Y, ,Y,Y,B,M, 
123.633333333,10.3666666670001,255,59015,57960,TOLEDO,PH,10.366667,123.633333,10,22,N,123,38,E,162,92370,S,OR,P,Y,Y, , , ,F,A,O,N,2,L, , , , ,Y,N,Y, ,Y, , , , , , , ,Y, ,Y, ,Y,Y, , , ,Y,N, ,N, ,Y, , , , ,Y,Y, , , , , ,Y,Y, ,Y,Y,C, , 
123.416666667,10.4833333330001,256,59070,57960,SAN CARLOS,PH,10.483333,123.416667,10,29,N,123,25,E,162,92370,V,CB,G, , , ,N, ,H,E,L, ,2, , , ,Y,N,Y, ,Y, , , ,Y,Y, , , , , , ,Y,Y,Y, , , , ,Y,Y, , , ,Y, , , , ,Y,Y, , , , ,Y,Y,Y, , , ,C, , 
123.116666667,9.60000000000002,257,59080,57960,BAIS,PH,9.6,123.116667,9,36,N,123,7,E,162,92302,V,OR,G,Y,Y, ,Y, ,H,A,K, ,2, , , , , , ,Y, , , , , , , , , ,Y, , , , , , , , , ,Y, , ,N, , , , , , , , , , , , , ,Y, , , , ,D, , 
123.3,9.31666666700005,258,59090,57960,DUMAGUETE,PH,9.316667,123.3,9,19,N,123,18,E,162,92302,V,OR,G, , , ,Y, ,A,A,O, ,1,M,N,Y, , ,Y,Y,Y, , , , ,Y, , , , ,Y, ,Y, ,Y, , , , ,Y, , ,N, ,Y, , , , ,Y,Y, , , , , ,Y,Y, , , ,C, , 
123.633333333,9.13333333300005,259,59100,57960,LAZI,PH,9.133333,123.633333,9,8,N,123,38,E,162,92290,V,CN,F, , , , , ,A,A,O, ,3,M,Y, , , , ,Y, , , , ,Y, , ,Y,Y,Y, ,Y, , ,Y, , , , ,Y, , , , , , , , , , , , , , , , ,Y,Y, , , ,N, , 
122.8,10.516666667,260,59120,57960,PULUPANDAN,PH,10.516667,122.8,10,31,N,122,48,E,162,92350,V,OR,P,Y,Y, ,Y, ,O,K,N,M,2,M,Y, , , ,Y,Y,Y, ,Y, ,Y,Y, , , ,Y,Y, ,Y, ,Y, ,Y, , ,Y, , , , , , , , , , ,Y, , , , ,Y,Y,Y, , , ,C, , 
122.716666667,11.6,261,59150,57960,PORT CAPIZ,PH,11.6,122.716667,11,36,N,122,43,E,162,92420,V,CB,E, , , ,Y, ,N,N,J, ,4,M, , , , , , , , , , , , , , ,Y, , , , , ,Y,Y, , , , , , , , , , , , , , , , , , , , , , , , , ,D, , 
122.583333333,10.6666666670001,262,59180,57960,JORDAN,PH,10.666667,122.583333,10,40,N,122,35,E,162,92356/0,V,OR,G, , , , , ,A,A,K,J,4,M, , , , ,Y,Y,Y, , , , , , , , , ,Y, ,Y, ,Y, , , , ,Y, , , , , , , , , , , , , , , , ,Y,Y, , , , , , 
122.583333333,10.7,263,59190,57960,ILOILO,PH,10.7,122.583333,10,42,N,122,35,E,162,92356/0,V,OR,G,Y,N,N, , ,L,A,K, ,3,L,Y,Y,Y,Y,Y,Y,Y, ,Y, ,Y,Y,Y, , , ,Y, ,Y,Y,Y,Y, , , ,Y,Y, ,N,Y,Y, , , ,Y,Y,Y,Y,Y,N,N, ,Y,Y, ,Y,Y,B,S,M
118.733333333,9.73333333300008,264,59270,57960,PUERTO PRINCESA,PH,9.733333,118.733333,9,44,N,118,44,E,162,92529,S,CN,G,Y,Y,N,Y, ,A,E,L, ,1,M,Y,Y,Y,N,Y,Y,Y, , , ,Y, , ,Y, , , , ,Y,Y,Y, , , , ,Y,Y, ,N,N,Y,N,N,N,N,Y,Y, , , , , ,Y,Y, , , ,C, ,S
124.833333333,10.1333333330001,265,58740,57960,MAASIN,PH,10.133333,124.833333,10,8,N,124,50,E,162,92090,V,OR,F, , , ,Y, ,H,K,N, ,3, , , , , ,Y,Y, , , , , , , , , ,Y, , , , , ,Y, , , , , , , , , , , , , , ,Y, , , , ,Y,Y, ,Y, , , , , 
124.8,10.6833333330001,266,58750,57960,BAYBAY,PH,10.683333,124.8,10,41,N,124,48,E,162,92090,V,OR,P, , , , , ,A,A,O, ,4, , , , , , , , , , , , , , , , ,Y,Y, , , ,Y, , , , ,Y, , , , , , , , , , ,Y, , , , ,Y,Y, ,Y, , ,C, ,S
124.0,12.966666667,267,58205,57960,SORSOGON,PH,12.966667,124,12,58,N,124,0,E,162,91380,V,CN,E, , , ,Y, ,P,N,Q, ,3, , , , , , , , , , , , , , , , ,Y, , , , , ,Y, , , , , , , , , , , , , , , , , , , ,Y, , ,Y, , ,D, , 
122.066666667,13.5000000000001,268,58315,57960,SANTA CRUZ (MARINDUQUE ISL),PH,13.5,122.066667,13,30,N,122,4,E,162,91335,V,CB,E, , , ,Y, ,A,F,K, ,5, ,Y, , , , ,N,Y, , , ,Y, , , ,Y,Y, , ,Y, ,Y, , , , ,Y, , , , , , , , , , , , , , , ,Y,N,N,N,N,N, , , 
121.05,13.7500000000001,269,58320,57960,BATANGAS CITY,PH,13.75,121.05,13,45,N,121,3,E,162,91309,M,OR,G,N,N,N, , ,A,B,J,G,1,L,Y,Y,Y,N,Y,Y,Y, ,Y, ,Y,Y, ,Y, , ,Y, , ,Y,Y,Y, , , ,Y,Y, ,N, ,Y,Y, , ,Y,Y,Y, , ,Y,Y, ,Y,Y, , , ,B,M,S
120.616666667,14.083333333,270,58350,57960,NASUGBU,PH,14.083333,120.616667,14,5,N,120,37,E,162,91300,V,CN,P,Y,Y, ,Y, ,Q,L, , ,3,M,Y, , , , , , ,Y, , , , , , , , ,Y, , , , ,Y, , , ,N, , ,N, , , , , , , , , , , , ,Y,N, , , , ,N, , 
120.966666667,14.583333333,271,58370,57960,MANILA,PH,14.583333,120.966667,14,35,N,120,58,E,162,91297,L,CB,E,Y,Y,N,Y,Y,K,J,G,L,1,M,Y,Y,Y,Y,Y,Y,Y,Y,Y, ,Y,Y, ,Y,Y,Y,Y,Y,Y,Y,Y, , , , ,Y,Y, , , ,Y,Y, ,Y,Y,Y,Y, , , , ,Y,Y,Y,Y, , ,B,M,M
120.483333333,14.4333333330001,272,58390,57960,MARIVELES,PH,14.433333,120.483333,14,26,N,120,29,E,162,91280,V,CN,F,Y,Y, , , ,O,A,G,G,1,M,Y, ,Y,N,Y,Y,Y, , , ,Y,Y, ,Y, , ,Y, , , ,Y, , , , ,Y,Y, ,N,Y, , , , ,Y,Y,Y, , , , , ,Y,Y, , , ,A,S, 
119.95,15.5500000000001,273,58410,57960,MASINLOC,PH,15.55,119.95,15,33,N,119,57,E,162,91273,V,CN,G,Y,Y, ,Y, ,H,B,K,K,1, ,Y, ,Y, ,Y,Y,Y, , , ,Y, , ,Y, , ,Y,Y, , ,Y, , , , ,Y,Y, ,N, , , , , , , ,Y,Y,N,N,N, ,Y, ,N,N,N,N, , 
120.316666667,16.6166666670001,274,58460,57960,SAN FERNANDO HARBOR,PH,16.616667,120.316667,16,37,N,120,19,E,162,91247,M,OR,F,Y,Y, , , ,F,B,F,G,1,M,Y,Y,Y, ,Y,Y,Y, ,Y,Y,Y,Y,Y,Y,Y, ,Y, ,Y,Y,Y, , , , ,Y,Y, ,Y,Y,Y,Y, ,Y,Y,Y,Y, , , , ,Y,Y,Y,Y,Y,Y,C,S,S
121.183333333,13.4166666670001,275,58540,57960,CALAPAN,PH,13.416667,121.183333,13,25,N,121,11,E,162,91300,V,OR,P,Y,Y, ,Y, ,H,E,N, ,5, ,N, , , , , , ,Y, , , , , , , ,Y,Y, , , ,Y, , , , ,Y, , , , , , , , , , , , , , , ,Y, , ,Y, , , , , 
122.266666667,12.583333333,276,58590,57960,PORT ROMBLON,PH,12.583333,122.266667,12,35,N,122,16,E,162,92450,V,CN,F, , , , , ,A,A,L, ,4, , , , , , , ,Y, , , , , , , , ,Y, , , , , ,Y, , , ,Y, , , , , , , , , , , , , , , ,Y,Y,Y,Y, , , , , 
123.616666667,12.3666666670001,277,58620,57960,MASBATE,PH,12.366667,123.616667,12,22,N,123,37,E,162,92302,S,CN,E, , ,N,Y, ,A,A,L, ,0,M, ,Y,Y, ,Y,Y,Y, ,N, ,Y,Y, ,Y,Y,Y,Y,Y,Y, ,Y, , , , ,Y, , ,N,Y,Y,N,N,N,Y,N,Y,Y, , , ,Y,Y,Y,Y, , ,C, , 
125.016666667,12.5666666670001,278,58630,57960,LAOANG,PH,12.566667,125.016667,12,34,N,125,1,E,162,92040,V,RN,F, , , ,Y, ,O,H,P, ,4, , , , , , , , , , , , , , , , , , , , , , ,Y, , , , , , , , , , , , , , , , , , , ,Y,Y, ,Y, , , , , 
125.433333333,11.6,279,58640,57960,PORT BORONGAN,PH,11.6,125.433333,11,36,N,125,26,E,162,92050,V,OR,F, ,Y, ,Y, ,A,F,J, ,4, , , , , ,Y, ,Y, , , , , , , ,Y,Y, , ,Y, , ,Y, , , ,Y, , , , , , , , , , , , , , , ,Y,Y,Y, , , , , , 
125.716666667,11.033333333,280,58655,57960,GUIUAN,PH,11.033333,125.716667,11,2,N,125,43,E,162,92060,V,CN,F, , , ,Y, ,A,D,P, ,2, , , , , , , ,Y,Y,Y, , , , , , , ,Y, ,Y, , ,Y, , , ,Y, , , , , , , , , , , , , , , ,Y,N,Y,Y, , , , , 
124.883333333,11.766666667,281,58670,57960,CATBALOGAN,PH,11.766667,124.883333,11,46,N,124,53,E,162,92070,V,OR,F, , , ,Y, ,H,L,O, ,4, , , , , ,Y, ,Y, , , , , , , , ,Y,Y, , , ,Y, , , , ,Y, , , , , , , , , , ,Y, , , , ,Y,Y,Y,Y, , , , , 
125.0,11.2500000000001,282,58690,57960,TACLOBAN,PH,11.25,125,11,15,N,125,0,E,162,92061,S,CN,G,N,N,N,Y,Y,N,L,N,M,1,M,Y,Y,Y, ,Y,Y,Y, ,Y, ,Y,Y, ,Y, , ,Y, ,Y, ,Y, , , , ,Y,N, , ,N,N,N,N,N,N,N,Y, , , , , ,N,N,Y, , ,C, , 
108.35,21.7500000000001,283,57745,57740,FANG-CHENG,CN,21.75,108.35,21,45,N,108,21,E,161,93650,M,RN,G,Y, , ,Y,Y,F,J,H,K,4,M, ,Y, , ,Y,Y,Y, , , ,Y,Y, ,Y, , ,Y,Y, ,Y,Y,Y, , , ,Y,Y, ,Y, ,Y,Y, , ,Y,Y, , , , , ,Y,Y,Y,Y, , ,C,S, 
109.066666667,21.4833333330001,284,57750,57740,BEIHAI,CN,21.483333,109.066667,21,29,N,109,4,E,161,93652,V,OR,G,Y, , ,Y,Y,J,K,J,J,3,M, ,Y,Y,Y,Y, ,Y, , , , ,Y, ,Y, , ,Y, ,Y, ,Y,Y, , , ,Y, , ,N, ,Y, , ,Y,Y,Y,Y,Y, ,Y,Y, ,Y, , , , ,C, , 
110.283333333,20.0500000000001,285,57760,57740,HAIKOU,CN,20.05,110.283333,20,3,N,110,17,E,161,93710,V,CN,F,Y,Y,N,Y,Y,K,F,K, ,1,M,Y,Y,Y,N,Y,Y,Y, , , ,Y, , ,Y, , ,Y, ,Y, ,Y,Y, , , ,Y, , ,N, ,Y,Y, , , ,Y,Y, , , , ,Y,Y,Y, , , ,C, , 
108.616666667,19.1,286,57768,57740,BASUO,CN,19.1,108.616667,19,6,N,108,37,E,161,93688,S,CB,G,Y,Y, ,Y, ,L,J,L,L,2,M,Y,Y, , ,Y,Y,Y, , , ,Y,Y, ,Y, , ,Y, , ,Y,Y, , , , ,Y, , , ,Y,Y,N, , , ,Y,Y, , , , ,Y,Y,Y, , , ,C, ,M
110.4,21.2,287,57770,57740,ZHANJIANG,CN,21.2,110.4,21,12,N,110,24,E,161,93778,S,RN,G,N,N,N,Y,Y,J,G,H,N,2,M,Y, ,Y, ,Y,Y,Y, ,Y,Y,Y,Y, ,Y, , ,Y, ,Y,Y,Y, , , , ,Y, , , , ,Y,Y, ,Y, ,Y,Y,Y,Y, ,Y,Y,Y,Y,Y, , ,C, ,S
115.683333333,20.833333333,288,57775,57740,LON SHUI TERMINAL,CN,20.833333,115.683333,20,50,N,115,41,E,161,93730,L,OR,P,Y,Y, ,Y, ,A, , ,A,0,M, , , , ,Y,Y,Y,Y,Y,Y,Y,Y, , , , ,Y,Y, , ,Y,N,Y, , ,Y,N, ,N, , , , , , , , , , , , , ,Y,N, , , ,N, , 
113.566666667,22.1833333330001,289,57810,57805,MACAU,MO,22.183333,113.566667,22,11,N,113,34,E,161,93725,M,CB,G,N,N,N,Y,Y,O,O,O,O,2,M, ,Y,Y,N,Y,Y,Y, ,Y, ,Y, , , , , ,Y,Y,Y, , ,Y, , , ,Y, , ,N, , ,Y, , ,Y, ,Y, , , , , ,Y,Y, , , ,C,S,S
113.5,23.0500000000001,290,57825,57815,HUANGPUXINGANG,CN,23.05,113.5,23,3,N,113,30,E,161,93726,S,RN,G,Y,Y, ,Y,Y,P,M,G, ,2,L, ,Y, , ,Y,Y,Y, , , ,Y,Y, ,Y, , ,Y, , , ,Y, , , , ,Y, , , , ,Y,Y, , ,Y, ,Y, , , , ,Y,Y,Y,Y, , ,C,M,S
113.233333333,23.1166666670001,291,57830,57815,GUANGZHOU,CN,23.116667,113.233333,23,7,N,113,14,E,161,93728,M,RN,G,Y,Y,N,Y,Y,H,J,H,K,2,M,Y,Y,Y,N,Y,Y,Y, , , ,Y,Y, ,Y,Y,Y,Y, ,Y,Y,Y,Y, , , ,Y,Y, ,Y,Y,Y,Y,Y,Y,Y, ,Y, , , , ,Y,Y,Y,Y,Y,Y,A,M,S
114.2,22.266666667,292,57840,57835,HONG KONG,HK,22.266667,114.2,22,16,N,114,12,E,161,93734/6,L,CN,E,Y,N,N,Y,Y,G,D,G,E,1,M,Y,Y,Y,Y,Y,Y,Y, ,Y,Y,Y,Y,Y,Y,Y,Y,Y,Y,Y,Y,Y,Y, , , ,Y,Y, ,Y,Y,Y,Y,Y,Y,Y,Y,Y,Y,N,Y,Y,Y,Y,Y,Y,Y,Y,A,M,S
116.683333333,23.3666666670001,293,57860,57855,SHAN T OU,CN,23.366667,116.683333,23,22,N,116,41,E,157,94042,S,RN,E,Y,Y,N,Y,Y,L,N,N,O,2,M,Y, ,Y,N,Y,Y,Y, , , ,Y,Y, ,Y, , ,Y, ,Y,Y, ,Y, , , ,Y, , ,N,Y,Y,Y, , ,Y,Y,Y, , , , ,Y,Y, ,Y, , ,C, , 
118.066666667,24.45,294,57870,57855,XIAMEN,CN,24.45,118.066667,24,27,N,118,4,E,157,94061,M,RN,G,Y,Y,N,Y,Y,L,K,M,A,5,M,Y,Y,Y, ,Y,Y, , ,Y, ,Y,Y, ,Y, , ,Y, ,Y,Y, ,Y, , , ,Y, , , , ,Y,Y, ,Y,Y,Y,Y,Y, , , ,Y,Y,Y, ,Y,Y,C,M,M
121.766666667,25.1333333330001,295,57890,57880,CHI-LUNG,TW,25.133333,121.766667,25,8,N,121,46,E,157,94124,L,CB,G,N,Y,N, , ,F,H,J,L,1,M,Y,Y,Y,N,Y,Y,Y, ,Y, ,Y,Y,Y,Y,Y,Y,Y, ,Y,Y,Y, , , , ,Y, , ,Y,Y,Y,Y, ,Y,Y, ,Y, , , , ,Y,Y,Y,Y, , ,A,L,M
121.866666667,24.6,296,57900,57880,SU-AO,TW,24.6,121.866667,24,36,N,121,52,E,157,94122,M,CB,G,N,N,N,Y, ,G,C,H,J,2,M, , ,N,N,Y,Y,Y, , , ,Y,Y,Y,Y,Y, ,Y, ,Y,Y,Y, , , , ,Y,Y, ,N, ,Y, , , , , ,Y, , , , , ,Y,Y,Y, , ,C,S,M
121.6,23.9833333330001,297,57910,57880,HUA-LIEN KANG,TW,23.983333,121.6,23,59,N,121,36,E,157,94122,M,CB,E,Y,Y,N,Y, ,K,J,L,L,1,M,Y,Y,Y,N,Y,Y,Y, ,Y, ,Y,Y,Y,Y,Y,Y,Y, , ,Y,Y, ,Y, , ,Y,Y, ,N,Y,Y,Y,Y,Y,Y,Y,Y,Y, , , ,Y,Y,Y,Y, , ,B,S,S
120.25,22.6166666670001,298,57920,57880,KAO-HSIUNG,TW,22.616667,120.25,22,37,N,120,15,E,157,94083/4,M,CB,F,Y,N,N,Y, ,J,C,L,K,1,L,Y,Y,Y,N,Y,Y,Y, ,Y, ,Y,Y,Y, ,Y, ,Y, ,Y,Y,Y, , , , ,Y,Y, ,Y,Y,Y, , , ,Y, ,Y, , , , , ,Y,Y,Y, , ,B,L,S
121.4,25.1833333330001,299,57935,57880,TAN-SHUI,TW,25.183333,121.4,25,11,N,121,24,E,157,94127,V,RN,P,N,N,N,Y,Y,P,H,N,L,4,M, , ,N,N,Y,Y,Y, ,Y, ,Y,Y, ,Y, , ,Y, ,Y,Y, ,Y, , , ,Y,Y, ,N,Y, , , , , ,Y,Y,Y, , , ,Y, , , , , ,C, ,S
119.533333333,23.583333333,300,57950,57940,PENG-HU KANG,TW,23.583333,119.533333,23,35,N,119,32,E,157,94067,S,CN,F,N,N,N,Y, ,L,L,N,N,8,M,Y,Y,N,N,Y,Y, , ,Y, , ,Y,Y, ,Y,Y,Y, ,Y, ,Y, , , , ,Y, , ,N,Y,Y,Y, , ,Y,Y, , , , , ,N,Y,Y,Y, , ,C,M, 
120.5,24.3000000000001,301,57955,57940,TAI-CHUNG KANG,TW,24.3,120.5,24,18,N,120,30,E,157,94063,S,LC,G,Y,Y,N,Y,N,J,G,L,H,5,M,Y,Y,Y,N,Y,Y,Y,Y,Y, ,Y,Y, ,Y,Y,Y,Y, , ,Y,Y,N,N,N,N,Y,Y, ,N, ,Y, ,Y, ,Y,Y,Y, , , , ,Y, , , , , ,C, ,M
121.966666667,20.45,302,57970,57960,BASCO,PH,20.45,121.966667,20,27,N,121,58,E,162,91160,V,CN,F,Y,Y,N,N, ,J,A,O, ,2,M,Y, ,N,Y,N,N, ,Y,Y, , , , , , , ,Y, ,Y, ,Y, , , , ,Y, , ,N, , , , , , , , , , , , ,N,Y, , , , ,D, , 
121.083333333,18.6166666670001,303,57990,57960,CLAVERIA,PH,18.616667,121.083333,18,37,N,121,5,E,162,91140,V,CN,F,Y,Y, ,Y, ,A,A,N, ,2, , , ,Y, ,Y,Y, , , , ,Y, , , , , ,Y, , , , ,Y, , , ,Y, , , , , , , , , , , , , , , , , ,Y, , , ,C, , 
122.133333333,18.516666667,304,57995,57960,PORT SAN VICENTE,PH,18.516667,122.133333,18,31,N,122,8,E,162,91120,V,CN,F, , , , , ,E,H,O, ,3,M,N, , , ,Y,Y,Y, , , ,Y, , , , , , , ,Y, , , , , , ,Y, , , , ,Y, ,Y,Y,Y,Y, , , , , ,Y,Y,Y,Y, , ,D, , 
121.633333333,18.3666666670001,305,58000,57960,APARRI,PH,18.366667,121.633333,18,22,N,121,38,E,162,91151,V,OR,P,N,Y,N,Y,N,O,C, , ,1,M, ,Y,Y,N,Y,Y,Y,Y,Y, ,Y,Y,Y, , ,Y,Y,Y, ,Y, ,Y, , , ,Y, , ,N,Y,Y,N,N,N,N,N,Y, , , , ,Y,N, ,Y, , ,C, ,S
122.233333333,13.95,306,58070,57960,HONDAGUA,PH,13.95,122.233333,13,57,N,122,14,E,162,91081,V,OR,F, , , ,Y,Y,E,E,J, ,5,L,Y, , , ,Y,Y,Y, , ,N,N,Y, , , ,Y, , , ,Y,Y, , , , ,Y, , , , ,Y, , , , ,Y, , , , , , ,Y, ,Y, , ,D, ,S
122.683333333,14.283333333,307,58100,57960,JOSE PANGANIBAN,PH,14.283333,122.683333,14,17,N,122,41,E,162,91080,V,OR,P,Y,Y,N,Y, ,H,L,N,N,2,M,Y, ,Y,N,Y,Y,Y, , ,N,Y,Y, , , ,Y,Y, ,Y, , ,Y, , , ,Y, , ,N,N,N,N,N,N,N,N,Y, , , , , ,Y,Y,Y, , ,D, , 
124.25,13.583333333,308,58130,57960,VIRAC,PH,13.583333,124.25,13,35,N,124,15,E,162,91040,V,CN,G,Y,Y, ,Y, ,L,F,N, ,4,M, , , , , , , , , , , ,Y, , , , ,Y, ,Y, , , , , , ,Y, , , , , , , , , , , , , , , ,Y,N, , , , ,N, , 
123.733333333,13.3666666670001,309,58150,57960,TABACO,PH,13.366667,123.733333,13,22,N,123,44,E,162,91407,V,OR,P,Y,Y,N,Y, ,M,A,L, ,2,L,N, ,Y,N,Y,Y,Y, ,Y, , ,Y,Y, , ,Y, , ,Y,Y,Y, , , , ,Y, , ,N,Y,Y, , , ,Y,Y,Y, , , , , ,Y,Y,Y, , ,C, ,S
123.75,13.15,310,58170,57960,LEGAZPI PORT,PH,13.15,123.75,13,9,N,123,45,E,162,91407,V,OR,F,N,Y,N,Y, ,H,A,O,K,1,M,N, ,Y,N,Y,Y,Y, , ,N,N, , ,Y, , ,Y, ,Y, ,Y, , , , ,Y,Y, ,N,N,Y,N,N,N,Y,Y,Y, , , , , ,Y,Y, , , ,C, ,S
107.366666667,21.033333333,311,57710,57510,CAM PHA,VN,21.033333,107.366667,21,2,N,107,22,E,161,93647,V,OR,F,Y,N,N,Y,Y,M,K,K, ,4,M,Y,Y,Y,N,Y,Y,Y, ,Y, ,Y,Y,Y,Y, , ,Y,Y,N, ,Y,Y, , , ,Y, , ,Y,Y,Y, ,Y, , ,Y,Y,Y, , , , ,Y,Y,Y, , ,C,S, 
160.15,-9.09999999999997,312,57100,56940,TULAGHI,SB,-9.1,160.15,9,6,S,160,9,E,126,82377,V,CN,G,N,N,N,Y, ,A,A,P, ,1,M,Y,Y,N, ,Y, ,Y, , , , , , , , , ,Y,Y, , , ,Y, , , ,Y,N, ,N, , , , , , , ,N,Y,N,Y,Y,N,N,N,N,Y,Y,C, ,S
159.95,-9.41666666699996,313,57120,56940,HONIARA,SB,-9.416667,159.95,9,25,S,159,57,E,126,82377,V,OR,G,Y,Y,N,Y, ,L,E,L,J,1,L,Y,Y,Y,N,Y,Y,Y, , , ,Y,Y, , , , ,Y,Y,Y, ,Y,Y, , , ,Y,Y, ,Y, ,Y, , , , ,Y,Y,Y,N,Y,Y, ,Y,Y, ,Y,Y,C, , 
167.166666667,-15.516666667,314,57200,57160,LUGANVILLE,VU,-15.516667,167.166667,15,31,S,167,10,E,126,BA1736,S,CN,G,N,N,N,Y, ,H,A,K,L,1,L,Y,Y,Y, ,Y,Y, , , , ,Y, , , ,Y, , , ,Y, , , , , , ,Y, , ,N, ,Y, , , , ,Y, , , , , ,Y,Y,Y,Y, , ,C, , 
168.316666667,-17.733333333,315,57230,57160,PORT VILA,VU,-17.733333,168.316667,17,44,S,168,19,E,126,82571,V,CB,E,N,N,N,Y,Y,J,A,K,P,1,M,Y,Y,Y, ,Y,Y,Y, , , ,Y,Y,Y,Y,Y, ,Y, ,Y, , ,Y, , , ,Y, , ,N, ,Y, , , , ,Y,Y, , , , ,Y,Y,Y, , , ,C, ,S
168.55,-17.683333333,316,57245,57160,FORARI BAY,VU,-17.683333,168.55,17,41,S,168,33,E,126,82571,V,OR,F, ,Y, , , , ,C,L, ,0,M, , , , ,Y, ,Y, , , ,Y, , , , , ,Y,Y, , ,Y, , , , ,N, , ,N, , , , , , , , , , , , ,N,N,N,N,N,N, , , 
165.816666667,-21.3833333329999,317,57275,57260,BAIE DE KOUAOUA,NC,-21.383333,165.816667,21,23,S,165,49,E,126,82684,V,OR,F, , , , ,Y,N,C,L, ,0,M,Y, , , ,Y,Y,Y, , , , ,Y, ,Y,Y, ,Y,Y,Y, ,Y,Y, , , , , , ,Y, , , , , , , , , , , , , , , , , , , , , 
103.433333333,3.96666666700003,318,57410,57400,KUANTAN NEW PORT,MY,3.966667,103.433333,3,58,N,103,26,E,161,93117,S,CB,G,N,N,N,Y, ,H,H,L, ,3,M,Y,Y,N,N,Y,Y,Y, , , ,Y,Y,Y,Y, , ,Y, ,Y, ,Y, , , , ,Y,Y, ,N,Y,Y, , , ,Y,Y, , , , , , ,Y,Y, , , ,N, , 
103.466666667,4.56666666700005,319,57415,57400,KIRTEH OIL TERMINAL,MY,4.566667,103.466667,4,34,N,103,28,E,161,93117,S,OR,F,Y,Y, ,Y, ,J,B, ,J,0,L,N, , , ,Y,Y,Y, , , ,Y,Y, ,Y, , ,Y, ,Y, ,Y, ,Y, , ,N,N, ,N, ,Y, , , , ,Y, , , , , ,N,N,N,N, , ,N, , 
103.133333333,5.35000000000002,320,57420,57400,KUALA TRENGGANU,MY,5.35,103.133333,5,21,N,103,8,E,161,UK771,V,RB,G,N,N,N,Y, ,N,L, , ,4, , , , ,N, , ,Y, , , , , , , ,Y,Y, , ,Y, , ,Y, , , , , , ,N, ,Y, , , , ,Y, , , , , ,Y,Y, , , , ,D,S, 
105.016666667,5.51666666700004,321,57425,57400,TAPIS MARINE TERMINAL A,MY,5.516667,105.016667,5,31,N,105,1,E,161,93110,L,OR,N, , , ,Y, ,A, , ,A,0,L, , , , ,Y,Y,Y, , , ,Y, , , , , ,Y,Y, , ,Y, , , , ,N, , ,N, , , , , , , , , , , , ,N,N,N,N,N,N, , , 
100.5,13.7500000000001,322,57450,57431,BANGKOK,TH,13.75,100.5,13,45,N,100,30,E,161,93240/2,L,RN,G, ,Y,N,Y,Y,L,H,L,L,3,M, ,Y,Y,Y,Y,Y,Y, ,Y,Y,Y,Y,Y,Y, , ,Y,Y,Y,Y,Y, , , , ,Y,Y, ,N,Y,Y, , ,Y,Y,Y,Y,Y,N,Y,Y,Y,Y,Y,Y,N,Y,C,M, 
100.883333333,13.1166666670001,323,57460,57431,SI RACHA TERMINAL,TH,13.116667,100.883333,13,7,N,100,53,E,161,93244,V,OR,P,N,N,N,Y, ,G,B,G,G,2,M,Y,Y,Y,N,Y,Y,Y, , , ,Y,Y,Y,Y, , ,Y,Y,N, , , ,Y, , ,Y,N, ,N,Y,Y, , , ,Y,Y, , , , , ,Y,Y,Y,Y, , ,C, , 
100.816666667,13.1666666670001,324,57470,57431,KO SI CHANG TERMINAL,TH,13.166667,100.816667,13,10,N,100,49,E,161,93244,V,OR,F,N,N,N,Y,Y,A,F,J,F,1,M,Y,N,N,N,Y,Y,Y, ,Y, ,Y, ,Y,Y,Y,Y,Y, ,Y, ,Y,Y,Y, , ,Y, , ,N, , , , , , , , ,Y, , ,Y, ,Y,Y, ,Y,Y,C, , 
103.5,10.6333333330001,325,57485,57478,KAMPONG SAOM,KH,10.633333,103.5,10,38,N,103,30,E,161,93283,M,CB,G,N,Y,N,Y, ,L,H,H,K,1,M,Y,Y,Y,N,Y,Y,Y, ,Y, ,Y, , ,Y,Y, ,Y, ,Y,Y,Y, , , , ,Y,Y, ,N,Y, , , ,Y, , ,Y, , , , , ,Y,Y, , , ,C, ,S
103.6,10.5000000000001,326,57490,57478,PHSAR REAM,KH,10.5,103.6,10,30,N,103,36,E,161,93284,V,CN,F,N,Y,N,Y, ,N,J,O, ,0,M, , ,Y,N,Y, , , , , , , , , , , , , , ,Y, ,Y, , , , , , ,N, , , , , , , , , , , , , ,Y, , , , ,D, , 
103.966666667,10.216666667,327,57520,57510,DUONG DONG,VN,10.216667,103.966667,10,13,N,103,58,E,161,93301,V,RN,F,Y,Y,N,Y, ,H,J, ,K,0,L, , ,Y,N,N, , , , , , , , , , , ,Y, ,Y, , ,Y, , , , , , ,N, , , , , , , , , , , , ,Y, , , , , ,D, , 
106.716666667,10.766666667,328,57580,57510,THANH HO CHI MINH,VN,10.766667,106.716667,10,46,N,106,43,E,161,93385,M,RN,E,Y,N,N,Y,Y,K,D,G,G,4,L,Y,Y,Y,Y,Y,Y,Y, , , ,Y,Y,Y,Y,Y, ,Y,Y,Y,Y,Y,Y,Y, , ,Y,Y, ,Y,Y,Y,Y,Y,Y,Y,Y,Y,Y,Y,Y,Y,Y,Y,Y,Y,Y,Y,C,S,M
109.166666667,11.8833333330001,329,57610,57510,VINH CAM RANH,VN,11.883333,109.166667,11,53,N,109,10,E,161,93446,S,CN,G,N,N,N,Y, ,L,E,N,H,2,L, , ,Y,N,Y,Y,Y, ,Y, ,Y, , , ,Y,Y, , ,Y, ,Y,Y, , , ,Y, , ,N, , ,Y, ,Y, , , , , , , , ,Y, , , , , , , 
109.233333333,12.2500000000001,330,57620,57510,NHA TRANG,VN,12.25,109.233333,12,15,N,109,14,E,161,93442,S,OR,F,Y,Y,N,Y,N,J,G,J,K,2,M,Y,Y,Y,N,Y,Y,Y, ,Y, ,Y,Y,Y,Y,Y,Y,Y, ,Y, ,Y,Y, , , ,Y,Y, ,N,Y,Y,N,Y,Y,Y,Y,Y,N,N,N,Y,Y,Y,Y, ,N,N,C,L, 
109.233333333,13.766666667,331,57640,57510,QUI NHON,VN,13.766667,109.233333,13,46,N,109,14,E,161,93491,V,CN,F,Y,Y,N,Y,N,J,J,M,L,2,M,Y,Y,Y,N,Y,Y,Y, ,Y, ,Y,Y,Y,Y, , ,Y,Y,Y,Y,Y, , , , ,Y, , ,N,Y,Y, , ,Y,Y,Y,Y,Y,N,N,N,Y,Y,Y,Y,N,N,C,M,S
108.216666667,16.1,332,57650,57510,DA NANG,VN,16.1,108.216667,16,6,N,108,13,E,161,93512,S,RN,F,Y,Y,N,N,Y,H,F,J,H,1,M,Y,Y,Y,N,Y,Y, , , ,N,Y,Y,Y,Y,Y,Y,Y,Y,Y,Y,Y, , , , ,Y,Y, ,Y, ,Y, , ,Y,Y,Y,Y,N,N,Y,Y, ,Y,Y,Y, , ,C, ,S
106.683333333,20.9166666670001,333,57680,57510,HAI PHONG,VN,20.916667,106.683333,20,55,N,106,41,E,161,93032,S,RN,G,Y,Y,N,Y,Y,M,J,K,O,4,M,Y,Y,Y,N,Y,Y,Y, ,Y, ,Y,Y,Y,Y,Y,Y,Y,Y,Y,Y,Y,Y,Y, , ,Y,Y, ,Y,Y,Y,Y, ,Y,Y,Y,Y, , , , , ,Y,Y,Y,Y,Y,B,M,S
107.066666667,20.95,334,57700,57510,HON GAI,VN,20.95,107.066667,20,57,N,107,4,E,161,93626,V,OR,F,Y,N,N,Y, ,L,F,J,K,2,M, ,Y,Y,N,Y,Y,Y, ,Y, ,Y,Y,Y,Y,Y,Y,Y, , ,Y,Y, , , , ,Y,Y, ,N, ,Y,Y, ,Y,Y,Y,Y, , , , ,Y,Y,Y,Y, , ,C, ,S
159.216666667,-9.08333333299993,335,57070,56940,YANDINA,SB,-9.083333,159.216667,9,5,S,159,13,E,126,82384,V,CN,G,N,N,N,Y, ,A,A,M, ,1,M,Y, ,Y, ,Y,N,Y, ,Y,N,N, , ,Y, , ,Y,Y,Y, ,Y, , , , , ,N, ,N, , , , , , , ,Y,Y,N,N,Y,Y,Y,N,Y,N,N,C, , 
-166.283333333,23.8666666670001,336,56323,56050,TERN ISLAND,US,23.866667,-166.283333,23,52,N,166,17,W,CP07,19402,V,CN,P,N,N,N,Y, ,N,A,N, ,1, ,Y, , , , , , , , , , , , , , ,Y, , , , , , , , , ,Y, , , , , , , , , , , , , , , , ,Y, , , , ,C, , 
-169.516666667,16.7500000000001,337,56325,56324,JOHNSTON ATOLL,XU,16.75,-169.516667,16,45,N,169,31,W,126,83637,V,CN,F,N,N,N,Y,N,L,K,O, ,2,L,N,Y,Y,Y,Y, ,Y, ,Y, , , , , ,Y,Y,Y,Y,Y, ,Y, , , , ,Y,Y, ,N, ,Y, , ,Y,Y,Y,Y,Y,N,Y,Y,Y,Y, ,Y,Y,Y,C, , 
-177.366666667,28.1833333330001,338,56328,56327,MIDWAY ISLAND,QM,28.183333,-177.366667,28,11,N,177,22,W,CP07,19480,V,CB,G,N,Y,N,Y, ,J,A,L, ,1, , , , ,Y,Y,Y, , ,Y, ,Y, , , ,Y,Y,Y,Y,Y,N,Y, , , , ,Y,Y, , , ,Y, , , ,Y,Y,Y,Y,Y,N,N, , , , ,N,N,D, , 
166.616666667,19.283333333,339,56330,56329,WAKE ISLAND,QW,19.283333,166.616667,19,17,N,166,37,E,126,81664,V,CN,F,Y,Y,N,Y,N,A, , ,H,1,L, , ,Y,N,Y, , , ,Y, , , , , , , , , ,Y, , ,Y, , , ,Y,N, ,N,Y, , , , , ,Y,N,N,N,N,Y,N,N,N,Y,N,N,C, ,S
171.383333333,7.08333333300004,340,56400,56340,MAJURO ATOLL,MH,7.083333,171.383333,7,5,N,171,23,E,126,81782,V,OR,G,N,N,N,Y,N,G,A,F,J,2, , , ,Y, ,Y,Y,Y,Y, ,N,N, , , , ,Y,Y, ,Y, ,Y,Y, , , ,Y,Y, ,N, ,Y, , , , ,Y,Y,Y,N,N,Y,Y,Y,Y,Y, , ,C, ,S
172.933333333,1.33333333300004,341,56450,56430,TARAWA ATOLL,KI,1.333333,172.933333,1,20,N,172,56,E,126,83059,V,OR,F,N,N,N,Y, ,L,L,M, ,3,M, , ,Y,N,Y, ,Y, ,Y, ,Y,Y, , , , ,Y, ,Y, , ,Y, , , ,Y,Y, ,N,Y,Y, , , ,Y,Y,Y, , , , ,N,Y,Y,N,Y,Y,C, , 
166.916666667,-0.533333332999973,342,56500,56495,NAURU,NR,-0.533333,166.916667,0,32,S,166,55,E,126,81012,V,OR,F,N,Y,N,Y,Y,A, ,A,A,1,M, , ,Y,N,Y,Y,Y, ,Y,N,N,Y, ,Y,Y,Y,Y, ,Y, , ,Y,Y, , ,Y,N, ,N, , , , , , , ,Y, ,N,Y,Y, , ,Y, ,N,N,C, , 
145.683333333,15.2,343,56520,56515,SAIPAN,MP,15.2,145.683333,15,12,N,145,41,E,CP07,81067,S,CN,P,N,N,N,Y,N,K,N,N,N,1,M,Y, ,Y,Y, ,Y,Y,Y,Y,N,Y, , ,Y,Y,Y,Y,Y,Y, , , , , , ,Y,Y, ,N,Y,Y, ,Y,Y, , ,Y,Y,N,N,Y,Y,Y,N,Y,Y,Y,N, , 
145.616666667,14.966666667,344,56530,56515,TINIAN,MP,14.966667,145.616667,14,58,N,145,37,E,CP07,81071,V,CB,G,N,N,N,Y,N,L,E,L, ,1,M,Y,Y, ,Y, ,Y, , , ,N,N, , ,Y, , ,Y, ,Y, ,Y, , , , ,Y,Y, ,N, ,Y, , ,Y, ,Y,N,Y,N,N,N,Y,Y,N,Y,N,N,D, , 
145.15,14.1333333330001,345,56540,56515,ROTA,MP,14.133333,145.15,14,8,N,145,9,E,CP07,81063,V,OR,P,N,N,N,Y,N,A,A,P, ,1, , , , , , ,Y, , , ,N,N, , , , , ,Y, ,Y, , ,Y, , , ,Y, , ,N, , , , ,Y, , ,Y, , , , ,Y,Y, , , , ,C, ,S
144.616666667,13.45,346,56550,56545,APRA HARBOR,GU,13.45,144.616667,13,27,N,144,37,E,126,81054,M,CB,G,Y,Y,N,Y,N,J,A,L,G,1,M,N,Y,Y,Y,Y,Y,Y, ,Y, ,Y,Y, , ,Y,Y,Y, ,Y, ,Y, , , , ,Y,Y, ,Y,Y,Y,Y,Y, ,Y, , ,Y,Y,N,N, ,Y,Y,Y,N,Y,C,M, 
163.033333333,5.33333333300004,347,56570,56560,LELE HARBOR,FM,5.333333,163.033333,5,20,N,163,2,E,126,81488,V,CN,F,N,Y,N,Y,N,G,H,L,L,1, ,Y,N, , , , , , , ,N,N, , , , , ,Y, , , , ,Y, , , ,Y,N, ,N, , , , , , , ,N,Y,N,N,N,Y,Y,Y,Y,Y,Y,D, , 
138.133333333,9.51666666700004,348,56630,56560,COLONIA,FM,9.516667,138.133333,9,31,N,138,8,E,126,81187,V,CN,G,N,N,N,Y,Y,A,A,L, ,1,M,Y,Y, ,N,Y, ,Y, , ,N,N, , , ,Y,Y,Y, ,Y, , ,Y, , , ,Y,Y, ,N,N,N,N,N,Y,N,N,Y,Y,N,N,N, ,Y,Y, ,N,N,C,M, 
134.45,7.33333333300004,349,56660,56650,MALAKAL HARBOR,PW,7.333333,134.45,7,20,N,134,27,E,126,81155,V,OR,G,N,Y,N,Y,N,H,E,M,M,4,M, , ,Y,N,N,N,Y,N,N,N,N, , , , , , ,Y,Y, ,Y,Y, , , ,Y,Y, ,N, ,Y,Y, ,Y, ,Y,Y,Y,N,N,Y,Y,Y,Y,Y,Y,N,C, , 
144.3,-1.21666666699997,350,56710,56700,LONGAN ISLAND,PG,-1.216667,144.3,1,13,S,144,18,E,126,82050,V,CN,P,N,N,N,Y,N,J,L,P, ,2, , , , , , , , ,Y, , , , , , , , , ,Y, , , ,Y, , , ,Y,Y, ,N, , , , , , , ,Y,N,N,N,N,N,Y,N,N,N,N, , , 
147.266666667,-2.01666666699992,351,56730,56700,LORENGAU,PG,-2.016667,147.266667,2,1,S,147,16,E,126,82071,V,OR,G,N,N,N,Y, , ,F, ,N,1,M,Y, ,Y,N,Y,N,Y, , ,N,N,Y, ,Y, , , ,N,Y, , , , , , , , , , , ,Y, , , , ,Y,Y,Y, , , ,Y,Y,Y,Y, , , , , 
143.633333333,-3.56666666699994,352,56738,56700,WEWAK HARBOR,PG,-3.566667,143.633333,3,34,S,143,38,E,164,AUS651,S,OR,F,Y,Y,N, ,Y,F,F,M, ,1,M, , ,N,N,Y,N,Y, , ,N,N, , ,Y,Y, ,Y, ,Y, ,Y, , , , ,Y, , ,N,N,Y,N,N,N,N,Y,Y, , , , , ,Y,Y,Y, , ,N, , 
149.966666667,-1.63333333299994,353,56740,56700,HAMBURG HARBOR,PG,-1.633333,149.966667,1,38,S,149,58,E,126,82005,V,CN,F,N,N,N,Y, ,H,F,L, ,2,M, , , , , , , ,Y, , , , , , , , , ,Y,Y, ,Y, , , , , , , ,N, , , , , , , , , , , , , , , , , , , , , 
152.266666667,-4.33333333299993,354,56820,56700,KOKOPO,PG,-4.333333,152.266667,4,20,S,152,16,E,126,82192,V,OR,F,N,N,N,Y,N,A,E,P, ,2, ,Y, , , , , , , , , , , , , ,Y, , , , , , ,Y, , , ,Y,N, ,N, , , , , , , ,N,Y,N,N,N,Y,Y,N,N,N,N,C, , 
150.533333333,-5.13333333299994,355,56835,56700,KIMBE,PG,-5.133333,150.533333,5,8,S,150,32,E,126,82215,V,CN,F,N,N,N,Y, , , ,J,J,1,M,N,N,Y,N,Y,Y,Y,Y,N,N,N, , , ,Y, ,Y, ,Y, ,Y,N, , , ,Y,Y, ,N,N,N,N,N,N,N,N,Y, , , , , ,Y,Y,Y, , ,N, , 
155.633333333,-6.21666666699997,356,56855,56700,KIETA,PG,-6.216667,155.633333,6,13,S,155,38,E,126,82242/4,S,CN,F,N,N,N,Y, ,A,A,L, ,2,L,N,N,Y,N,Y,Y,Y,N,Y,Y,Y, , ,Y,N, ,Y, ,Y, ,Y,Y, , , ,Y, , ,N, ,Y, , , , ,Y,Y, , , , ,Y,N, ,Y, , ,C, , 
156.85,-8.09999999999997,357,56970,56940,GIZO HARBOR,SB,-8.1,156.85,8,6,S,156,51,E,126,82304,V,CN,E,N,Y,N,Y, ,H,A,N, ,1,M,Y,Y,Y,N,Y,N,Y,Y, , , ,Y, , ,Y, ,Y,Y,Y, ,Y,Y, , , ,Y,N, ,Y, , , , , , , ,Y,Y,N,N,N, ,Y,Y,N,Y,Y,C, , 
-160.233333333,21.8666666670001,358,56320,56050,NONOPAPA,US,21.866667,-160.233333,21,52,N,160,14,W,CP07,19380,V,OR,P,N,Y,N, , ,H,G,P, ,1, , , , , , , , , , , , , , , , , , , , , , ,Y, , , ,Y, , , , ,Y, , , , ,Y, , , , , , , , , , , ,D, , 
-171.766666667,-13.8166666669999,359,55670,55665,APIA,WS,-13.816667,-171.766667,13,49,S,171,46,W,126,83476/3,V,CN,G,Y,Y,N,N, ,J,A,L,J,1,L, ,Y, , ,Y,Y,Y, ,Y, ,Y,Y, ,Y,Y,Y,Y,Y,Y,N,Y, , , , ,Y,Y, ,N, ,Y, , , , ,Y,Y, , , , , ,Y,Y, ,Y,Y,C, ,S
-170.666666667,-14.283333333,360,55680,55675,PAGO PAGO HARBOR,AS,-14.283333,-170.666667,14,17,S,170,40,W,126,83484,S,CN,G,N,Y,N,N,N,A,J,F,J,3,M,Y,Y,Y,Y,Y,N,Y, ,Y, ,Y,Y, , ,Y, ,Y, ,Y, ,Y, , , , , ,Y, ,Y, , ,Y, , , ,Y,Y, , , , , ,Y,Y,Y, , ,C, ,S
-169.933333333,-19.033333333,361,55695,55685,ALOFI,NU,-19.033333,-169.933333,19,2,S,169,56,W,126,BA4630,V,CN,G,N,N,N,N,N,A,A,P, ,2, ,Y, , , , , , , , , , ,Y, , , ,Y,Y, , , , ,Y, , , ,Y, , , ,N, , , , , , , , , , , ,Y,Y, , ,Y,Y,D, , 
-159.783333333,-21.1999999999999,362,55740,55700,AVATIU,CK,-21.2,-159.783333,21,12,S,159,47,W,126,83425,V,CN,G,N,Y,N,Y,N,N,A,N,N,1,M,Y,Y,Y,N,Y,N,Y,N,Y,N,Y,Y, ,Y,Y,Y,Y,Y,Y, ,Y,Y, , , ,Y,Y, ,N, ,Y, , , , ,Y,Y,Y,N,N,N, ,Y,Y, ,N,N,C, , 
-151.75,-16.4999999999999,363,55770,55765,VAITAPE,PF,-16.5,-151.75,16,30,S,151,45,W,126,83397,V,CB,G,N,N,N,Y, ,K,A,O, ,0,M,Y,Y,Y,N,Y,N,Y, , ,N,N,Y, , ,Y, ,Y, ,Y, ,Y, ,Y, , ,Y,N, ,N,N, , , , , , ,Y, , , , ,N,N,N,N, , ,C, , 
-151.45,-16.733333333,364,55800,55765,UTUROA,PF,-16.733333,-151.45,16,44,S,151,27,W,126,83392,V,CN,F,N,Y,N,Y,N,J,A,M, ,0, ,Y,Y,Y, , , ,Y, , , , ,Y, , , , ,Y, ,Y, ,Y,Y, , , ,Y, , , ,N, , , , , , , , , , , ,Y,Y, , , , ,D, , 
-149.583333333,-17.533333333,365,55840,55765,PAPEETE,PF,-17.533333,-149.583333,17,32,S,149,35,W,126,83385,S,CN,E,Y,Y,N,Y,Y,K,E,K,N,0,M,Y,Y,Y,N,Y,Y,Y, ,Y, ,Y,Y, ,Y, , ,Y,Y, , ,Y, , , , ,Y,Y, ,N, ,Y, ,Y,Y,Y,Y,Y,Y,Y,Y,Y,Y,Y,Y,Y,Y,Y,A, ,M
-134.966666667,-23.1166666669999,366,55960,55860,PORT RIKITEA,PF,-23.116667,-134.966667,23,7,S,134,58,W,126,83254,V,CN,F,N,N,N,Y,N,L,A,P, ,2,M,Y, ,N,N,N, ,Y,Y, , , , , , , , ,Y, ,Y, ,Y, , , , ,Y, , ,N, , , , , , , , , , , , ,N,Y,N,N,N,N, , , 
-139.033333333,-9.81666666699994,367,56010,56000,ATUONA,PF,-9.816667,-139.033333,9,49,S,139,2,W,126,83218,V,CN,G,N,N,N,Y,N,H,K, , ,3, ,Y, ,Y,N,N, , , , ,N,N, , , , , ,Y, , , , ,Y, , , ,Y, , ,N, , , , , , , , , , , , ,Y,Y,N,N, , , , , 
-140.083333333,-8.93333333299995,368,56015,56000,BAIE TAIOHAE,PF,-8.933333,-140.083333,8,56,S,140,5,W,126,83207,V,CN,G,Y,Y,N,Y,N,K,H, , ,3, , , ,Y,N,N, , , , ,N,N, , , , , ,Y, , , , ,Y, , , ,Y, , ,N, , , , , , , , , , , , ,Y,Y,N,Y, , , , , 
-171.716666667,-2.83333333299993,369,56025,56019,CANTON ISLAND,KI,-2.833333,-171.716667,2,50,S,171,43,W,126,83105,V,OR,F,N,Y,N,Y,N,L,M,L, ,3, ,Y,Y,Y,N,N, , , ,Y,N,N, , , , , ,Y,Y,Y, , ,Y, , , ,Y, , ,N,Y, , , , , ,Y, , , , , ,Y,Y, ,Y, , ,C, , 
-159.366666667,3.85000000000002,370,56039,56037,ENGLISH HARBOR,KI,3.85,-159.366667,3,51,N,159,22,W,126,83158,V,CN,F,Y,Y,N,Y,N,A,E, , ,1,M, , ,Y,N,N,Y,Y, , ,N,Y, , , , ,Y,Y, , , , ,Y, , , ,Y, , ,N,Y, , , , , ,Y,Y, , , , , ,Y, , , , , , , 
-155.466666667,20.1,371,56070,56050,HONOKAA,US,20.1,-155.466667,20,6,N,155,28,W,CP07,19322,V,OR,P,N,N,N, , ,H,H,P, ,2, , , , , , , , , , , , , , , ,Y,Y,Y,Y,Y,Y, ,Y, , , ,Y,Y, , , , , , , , , ,N,N,N,Y,Y,Y,N,N,N,Y,Y, , ,S
-155.066666667,19.7333333330001,372,56090,56050,HILO,US,19.733333,-155.066667,19,44,N,155,4,W,CP07,19324,M,CB,G,Y,Y,N,Y, ,K,L,K,K,1,L,Y,Y,Y,N,Y,Y,Y,Y,Y, ,Y, , ,Y,Y,Y,Y, ,Y, ,Y, , , , ,Y,N, ,N, ,Y, , ,Y, ,Y,Y,Y,N,N,Y, ,Y,Y,Y,Y,Y,B, ,S
-155.55,19.083333333,373,56100,56050,HONUAPO,US,19.083333,-155.55,19,5,N,155,33,W,CP07,19322,V,OR,P,N,N,N,Y, ,H,A,M, ,2, , , , , , , , , , , , , , , ,Y,Y,Y,Y,Y, , ,Y, , , ,Y,Y, , , , , , , , , ,N,N,N,Y,Y,Y,N,N,N,Y,Y, , , 
-155.9,19.1833333330001,374,56110,56050,MILOLII,US,19.183333,-155.9,19,11,N,155,54,W,CP07,19320/10,V,OR,P,N,N,N,Y, ,A,A,P, ,2, , , , , , , , , , , , , , , ,Y,Y,Y,Y,Y, , ,Y, , , ,Y,Y, , , , , , , , , ,N,N,N,Y,Y,Y,N,N,N,Y,Y, , , 
-155.9,19.3833333330001,375,56120,56050,KAUHAKO BAY,US,19.383333,-155.9,19,23,N,155,54,W,CP07,19320,V,CN,F,N,N,N, , ,A,A,P, ,2, , , , , , , , , , , , , , , ,Y,Y,Y,Y,Y, , ,Y, , , ,Y,Y, , , , , , , , , ,N,N,N,Y,Y,Y,N,N,N,Y,Y, , , 
-155.933333333,19.4833333330001,376,56130,56050,NAPOOPOO,US,19.483333,-155.933333,19,29,N,155,56,W,CP07,19332,V,CN,F,N,Y,N, , ,H,K,Q, ,2, , , , , , , , , , , , , , , , , , , , , , ,Y, , , , , , , , , , , , , , , , , , , ,Y, , , , , , , , 
-156,19.6333333330001,377,56140,56050,KAILUA,US,19.633333,-156,19,38,N,156,0,W,CP07,19331,V,CN,F,N,N,N, , ,L,H,N, ,1, , ,Y, , , , ,Y, , , , , ,Y, ,Y, , , ,Y, ,Y, , , , ,Y,N, , , , , , , , , ,N,N,N,N,N,Y,Y,N,N, , ,C, , 
-155.95,19.8666666670001,378,56150,56050,KIHOLO,US,19.866667,-155.95,19,52,N,155,57,W,CP07,19327,V,CN,F,N,N,N,Y, ,J,K,P, ,1, , , , , , , , , , , , , , , ,Y,Y,Y,Y,Y, , ,Y, , , ,Y,Y, , , , , , , , , ,N,N,N,Y,Y,Y,N,N,N,Y,Y, , , 
-155.833333333,20.033333333,379,56160,56050,KAWAIHAE,US,20.033333,-155.833333,20,2,N,155,50,W,CP07,19330,S,CB,F,Y,Y,N,Y, ,J,G,N, ,1,M,Y,Y,Y, ,Y,Y,Y, , , ,Y, , ,Y,Y,Y,Y, ,Y, ,Y, , , , ,Y, , , , , , , , , , ,Y,Y,N,N,N, ,Y,Y, , , ,C,M,S
-155.9,20.1833333330001,380,56170,56050,MAHUKONA,US,20.183333,-155.9,20,11,N,155,54,W,CP07,19329,V,CN,F,N,N,N,Y, ,J,E,P, ,1, , , , , , ,Y, , , , , , , , , , , , , , , ,Y, , , , , , , , , , , , , , , , , , , ,Y,Y, , , , , , , 
-156.466666667,20.9,381,56180,56050,KAHULUI,US,20.9,-156.466667,20,54,N,156,28,W,CP07,19342,V,CB,G,N,N,N, , ,J,F,K,N,1,M,N,Y,Y,N,Y,Y,Y, ,Y, ,Y, ,Y,Y,Y,Y,Y, ,Y, ,Y, , , , ,Y, , ,N, , , , , , , ,Y,Y,N,N,N, ,Y,Y,Y,Y,Y,C, ,S
-155.983333333,20.7500000000001,382,56190,56050,HANA,US,20.75,-155.983333,20,45,N,155,59,W,CP07,19341,V,CN,P,N,N,N,Y, ,K,L,L, ,2, ,N,Y, , , ,Y, , , , , , , , , , , , ,Y, ,Y, , , , ,Y,N, , , , , , , , , , , , , , ,Y, , , , , , , , 
-156.666666667,20.8666666670001,383,56200,56050,LAHAINA,US,20.866667,-156.666667,20,52,N,156,40,W,CP07,19348,V,CB,G,N,Y,N, , ,P,E,P, ,1,M,Y, , , , , , , , , , , , , ,Y, , , ,Y, , ,Y, , , ,Y,N, , ,Y, , , , , ,Y, , , , , ,N,Y,N,N,N,N, , , 
-157,20.783333333,384,56230,56050,KAUMALAPAU HARBOR,US,20.783333,-157,20,47,N,157,0,W,CP07,19351,V,CB,G,N,Y,N, , ,J,H,L, ,2,M, ,Y, , , , , ,Y,Y, , , , , , , , , , , ,Y, , , , , , , , ,Y, , , ,Y, , , , , , , , ,Y,Y,Y, , ,C, , 
-156.8,21.0666666670001,385,56240,56050,PUKOO,US,21.066667,-156.8,21,4,N,156,48,W,CP07,19353,V,TH,F,N,N,N,Y, ,O,O,N, ,1, ,Y, , , , , , , , , , , , , , , , , , , , ,Y, , , , , , , , , , , , , , , , , , , , , , , , , , , , 
-156.883333333,21.0500000000001,386,56250,56050,KAMALO,US,21.05,-156.883333,21,3,N,156,53,W,CP07,19353,V,CN,P,N,Y,N, , ,O,H,N, ,1, ,Y, , , , , , , , , , , , , , , , , , , , ,Y, , , , , , , , , , , , , , , , , , , ,Y,Y,Y, , , , , , 
-157.033333333,21.083333333,387,56260,56050,KAUNAKAKAI,US,21.083333,-157.033333,21,5,N,157,2,W,CP07,19353,V,OR,G,N,N,N,N,N,M,A,M,P,1, , ,Y, , ,Y,Y,Y, , ,N,N, , ,Y,Y,Y,Y, ,Y, ,Y, , , , ,Y,N, , ,Y, , , , , ,Y,N,Y,N,N,N, ,Y,Y,Y,N,N,D, , 
-157.866666667,21.3000000000001,388,56280,56050,HONOLULU,US,21.3,-157.866667,21,18,N,157,52,W,CP07,19367,M,CB,E,N,N,N,Y,Y,J,A,M,M,2,M, ,Y,Y,Y,Y,Y,Y, ,Y,Y,Y, ,Y,Y, , ,Y, ,Y, ,Y, , , , ,Y,Y, ,Y,Y,Y, , ,Y,Y,Y,Y,Y,Y,Y,Y,Y,Y,N,Y,Y,Y,A, ,L
-159.583333333,21.9,389,56290,56050,PORT ALLEN,US,21.9,-159.583333,21,54,N,159,35,W,CP07,19382,S,CB,G,N,N,N,Y, ,K,F,J,K,0,M,N, ,Y,Y,Y,Y,Y, ,Y, ,Y, ,Y,Y,Y,Y,Y, ,Y, ,Y, , , , ,Y, , ,N, , , , , , , ,Y, , , , , ,Y,Y,Y, , ,C, , 
-159.35,21.95,390,56300,56050,NAWILIWILI BAY,US,21.95,-159.35,21,57,N,159,21,W,CP07,19383,S,CB,F,N,N,N,Y, ,J,J,K, ,2,M,N,Y,Y,N,Y,Y,Y, ,Y, ,Y, ,Y,Y,Y,Y,Y, ,Y, ,Y, , , , ,Y, , ,N,N,N,N, , , , ,Y, , , , , ,Y,Y,Y, , ,C, ,S
-159.333333333,22.0000000000001,391,56310,56050,AHUKINI LANDING,US,22,-159.333333,22,0,N,159,20,W,CP07,19384,V,CB,F,N,Y,N, , ,K,K,L, ,1, , , , , , , , , , , , , , , ,Y, , , , , ,Y, , , , , , , , , , , , , , , , , , , , , , , , , , ,D, , 
-176.133333333,-13.283333333,392,55650,55640,MATA-UTU,WF,-13.283333,-176.133333,13,17,S,176,8,W,126,83495,V,OR,F,N,N,N,Y,N,M,J,O, ,4,M,Y,Y, , , , , , , , , , , , , , ,Y, , , , ,Y, , , ,Y, , , ,N, , , , , , , , , , , ,Y,Y, , , , ,D, , 
146.366666667,-41.183333333,393,54920,54700,DEVONPORT,AU,-41.183333,146.366667,41,11,S,146,22,E,127,75222,S,RB,E,Y,N,N,Y,Y,L,B,M,N,8,L,Y,Y,Y,N,Y,Y,Y, ,Y, ,Y, ,Y, ,Y,Y,Y,Y,Y,Y,Y, , , , ,Y,Y, ,Y,Y,Y,Y, , ,Y,Y,Y, ,Y, , ,Y,Y,Y, , , ,C, ,M
146.816666667,-41.15,394,54943,54700,BEAUTY POINT,AU,-41.15,146.816667,41,9,S,146,49,E,127,75207,S,CN,E, , , ,Y,N,B,L,K, ,2,M,Y,Y,Y,N,Y,Y,Y, ,Y, ,Y, ,Y, , , ,Y, ,Y, ,Y, , , , ,Y,Y, , , ,Y, , , ,Y, ,Y,Y,N,Y,Y,Y,Y,Y,Y, , ,C, , 
147.116666667,-41.4499999999999,395,54970,54700,LAUNCESTON,AU,-41.45,147.116667,41,27,S,147,7,E,127,75208/7,S,RN,E,Y,N,N,Y,Y,P,L,L,J,2,L, ,Y,Y,N,Y,Y,Y, ,Y, ,Y,Y,Y, , , ,Y, ,Y,Y,Y, , , , ,Y,Y, ,N,Y,Y, , ,Y,Y,Y,Y,Y,N,Y,Y,Y,Y,Y,Y, , ,C,S, 
173.766666667,-35.05,396,55000,54990,WHANGAROA,NZ,-35.05,173.766667,35,3,S,173,46,E,127,76040,V,CN,E, , , , , ,F,L,N, ,6,M,Y, , , , , , ,Y, , , , , , ,Y,Y, ,Y, , ,Y, , , , ,Y,N, , , , , , , , , ,N,Y,N,N,Y,Y,Y,Y,Y,N,Y,D, , 
174.116666667,-35.3166666669999,397,55030,54990,OPUA,NZ,-35.316667,174.116667,35,19,S,174,7,E,127,76041,V,RN,G,N,N,N, ,Y,N,J,M, ,2,M, , ,N,N,Y,Y,Y, , , ,Y,Y, ,Y,Y,Y,Y, ,Y,Y,Y, , , , ,Y,Y, ,N,Y, , , , , ,Y,Y, , , , , ,Y,Y, , , ,C, ,S
174.433333333,-35.8,398,55050,54990,WHANGAREI,NZ,-35.8,174.433333,35,48,S,174,26,E,127,76056,S,RN,G,N,N,N, ,Y,L,H,N,H,2,M, ,Y, ,N,Y,Y,Y, , , ,Y,Y,Y, ,Y,Y,Y,Y,Y,Y,Y, , , , ,Y,Y, ,Y, ,Y, , , ,Y,Y,Y, , , , , ,Y,Y, , , ,C, ,L
174.766666667,-36.85,399,55060,54990,AUCKLAND,NZ,-36.85,174.766667,36,51,S,174,46,E,127,76052,L,RN,E,N,N,N,N,N,K,J,K,K,2,L,Y,Y,Y,Y,Y,Y,Y, ,Y, ,Y,Y,Y,Y,Y, ,Y,Y,Y,Y,Y, , , , ,Y,Y, ,N,Y,Y,Y, ,Y,Y,Y,Y,Y,Y,Y,Y,Y,Y,Y,Y,Y,Y,A,L,M
176.166666667,-37.6333333329999,400,55080,54990,TAURANGA,NZ,-37.633333,176.166667,37,38,S,176,10,E,127,76171,S,CN,E,Y,N,N,Y,N,G,C,K,J,2,M,Y, ,Y,N,Y,Y,Y, , , ,Y,Y,Y,Y,Y, ,Y, ,Y,Y,Y, , , , ,Y,Y, ,Y,Y,Y, ,Y,Y, , ,Y,Y,Y, ,Y,Y,Y,Y,Y,Y,Y,B, ,M
178.033333333,-38.666666667,401,55110,54990,GISBORNE,NZ,-38.666667,178.033333,38,40,S,178,2,E,127,76162,S,RB,G,N,Y,N,Y,N,K,C,K,K,1,M, ,Y,Y,N,Y,Y,Y, , ,Y,Y,Y, , , , ,Y, ,Y,Y,Y, , , , ,Y,Y, ,Y, ,Y,Y, , , ,Y,Y,Y,Y,Y,Y, ,Y, ,Y, , ,C, ,M
176.916666667,-39.483333333,402,55130,54990,NAPIER,NZ,-39.483333,176.916667,39,29,S,176,55,E,127,76161,S,CB,F,N,Y,N,Y,Y,J,C,K,K,1,L,Y, ,Y,N,Y,Y,Y, ,Y, ,Y,Y, , , ,Y,Y,Y,Y,Y,Y, , , , ,Y,Y, ,N,Y,Y, , ,Y,Y, ,Y,Y, , , ,Y,Y,Y, , , ,B, ,M
174.783333333,-41.283333333,403,55150,54990,WELLINGTON,NZ,-41.283333,174.783333,41,17,S,174,47,E,127,76071/0,L,CN,E,N,N,N, , ,K,H,K,J,3,L,Y,Y,Y,Y,Y,Y,Y, ,Y, ,Y,Y,Y, ,Y,Y,Y, ,Y,Y,Y, , , , ,Y,Y, ,N,Y, , , , , ,Y,Y, , , , ,Y,Y,Y,Y, , ,C, ,S
175.033333333,-39.9499999999999,404,55180,54990,WANGANUI,NZ,-39.95,175.033333,39,57,S,175,2,E,127,76070,V,RN,G,Y,Y,N,Y,Y,O,G,N,N,2,M, ,Y,Y,N,Y,N,Y, ,Y,N,Y,Y, ,Y, , ,Y,Y,Y,Y,Y, , , , ,Y,Y, ,Y, ,Y, , , ,Y,Y,Y, , , , ,Y,Y,Y,Y,Y,Y,C, , 
174.033333333,-39.0666666669999,405,55210,54990,NEW PLYMOUTH,NZ,-39.066667,174.033333,39,4,S,174,2,E,127,76060,S,CB,F,N,Y,N, ,Y,K,A,K,A,10,L,Y,Y,N,N,Y,Y,Y, , ,Y,Y,Y, , ,Y,Y,Y,Y,Y,Y, , , , , ,Y,Y, ,Y, ,Y, , ,Y,Y,Y,Y,Y,N,Y,Y,Y,Y,Y,Y,Y,Y,A,S,S
174.783333333,-36.933333333,406,55230,54990,MANUKAU HARBOR,NZ,-36.933333,174.783333,36,56,S,174,47,E,127,76050,M,CN,G, ,Y, , , ,O,N,N,K,3,L, ,Y,Y,Y,Y,N,Y,Y,Y, ,Y,Y, , , , ,Y,Y,Y, ,Y, , , , ,Y,Y, ,Y,Y,Y, , , , ,Y,Y,Y, , , ,Y,Y,Y,Y, , ,B, , 
172.666666667,-40.683333333,407,55270,55260,COLLINGWOOD,NZ,-40.683333,172.666667,40,41,S,172,40,E,127,76080,V,CN,G, , , , , ,P,K,P, ,7, ,Y, , , ,Y,Y,Y, , , ,Y, , , , ,Y, , ,Y, ,Y, , , , ,Y, , , , ,Y, , , , ,Y, , , , , , , ,Y,Y, , ,C, ,S
173.266666667,-41.266666667,408,55290,55260,NELSON,NZ,-41.266667,173.266667,41,16,S,173,16,E,127,76083,S,CB,G,Y, , ,Y,Y,M,J,L,L,2,L, ,Y,Y,N,Y,Y,Y, , , ,Y,Y,Y, ,Y,Y,Y,Y,Y,N,Y, , , , ,Y,Y, ,Y,Y,Y, , , , ,Y,Y, , , , ,Y,Y,Y,Y, , ,C,S,M
174.016666667,-41.283333333,409,55300,55260,PICTON,NZ,-41.283333,174.016667,41,17,S,174,1,E,127,76070,S,RB,G,Y,N,N,Y, ,H,A,N, ,1,L,Y, ,Y,N,Y,Y,Y, ,N,N,Y,Y,Y,Y, , ,Y, ,Y,Y,Y, , , , ,Y,Y, ,N,Y,Y, , , , ,Y,Y, , , , , ,Y,Y, , , ,C, ,S
172.716666667,-43.6,410,55320,55260,PORT LYTTELTON,NZ,-43.6,172.716667,43,36,S,172,43,E,127,76151,V,CB,E,N,N,N,N,Y,J,G,K,H,2,M,Y,Y,Y,Y,Y,Y,Y, ,Y,Y,Y,Y, ,Y, , ,Y,Y,Y,Y,Y, , , , ,Y,Y, , ,Y,Y, , ,Y,Y,Y,Y,Y,Y,Y,Y, ,Y,Y, ,Y,Y,A,M,L
172.966666667,-43.8,411,55330,55260,AKAROA,NZ,-43.8,172.966667,43,48,S,172,58,E,127,76140,V,CN,G,Y,Y, , , ,H,N,P, ,2,M,Y, , ,N,Y, ,Y, , , ,N,Y, , , , ,Y,Y,Y,Y,Y, , , , ,Y,Y, ,N, , , , , , , ,Y, , , , , ,Y, ,Y, , ,C, , 
171.25,-44.4,412,55350,55260,TIMARU,NZ,-44.4,171.25,44,24,S,171,15,E,127,76140/7,S,CB,E,Y,Y,N,Y,N,K,H,L,K,1,M,Y,Y,Y,N,Y,Y,Y, ,Y, ,Y,Y,Y, ,Y,Y,Y, ,Y,Y,Y, , , , ,Y,Y, ,Y, ,Y, , , ,Y,Y,Y,Y, ,Y,Y, ,Y,Y,Y,Y,Y,B, ,S
170.633333333,-45.8166666669999,413,55370,55260,OTAGO HARBOR,NZ,-45.816667,170.633333,45,49,S,170,38,E,127,76140/2,S,RB,G,Y,N,N,Y,Y,G,A,H,N,2,M,Y,Y,Y,N,Y,Y,Y,Y,Y, ,Y, , ,Y, , ,Y, ,Y,Y,Y, , , , ,Y,Y, ,Y,Y, , , , ,Y, ,Y,Y,Y,Y,Y, ,Y,Y,Y,Y,Y,B,S,S
168.333333333,-46.6,414,55400,55260,BLUFF HARBOR,NZ,-46.6,168.333333,46,36,S,168,20,E,127,76121,S,CB,E, , , ,Y,Y,H,G, ,J,2,M,Y,Y, , ,Y,Y,Y,Y,Y,Y,Y,Y,Y,Y, , ,Y,Y,Y,Y,Y, ,Y, , ,Y,Y, ,Y,Y,Y, , ,Y,Y, ,Y,Y,Y,Y,Y, ,Y,Y, ,Y,Y,A,S,L
171.216666667,-42.433333333,415,55440,55260,GREYMOUTH,NZ,-42.433333,171.216667,42,26,S,171,13,E,127,76090,V,RN,G,Y, , ,Y, ,P,E,N, ,3,M,Y,Y,Y, ,Y,N,Y,Y,Y,N,N,Y, ,Y, , ,Y,Y,Y,Y,Y, ,Y, , ,Y,Y, ,N, ,Y, , , , ,Y,Y,Y, ,Y, , ,Y, ,Y,Y,Y,C, ,S
171.6,-41.7499999999999,416,55450,55260,WESTPORT,NZ,-41.75,171.6,41,45,S,171,36,E,127,76090,V,RN,E,Y, , ,Y,Y,O,E,O, ,2,M, , , , ,Y,Y,Y,Y,Y, ,Y,Y, , ,Y,Y,Y, ,Y,Y,Y, , , , ,Y,Y, ,N, ,Y, , , , ,Y,N,Y, ,Y,Y, ,Y,Y,Y, , ,B, , 
167.95,-29.0666666669999,417,55500,55490,KINGSTON,NF,-29.066667,167.95,29,4,S,167,57,E,127,AUS609,V,OR,P,Y,Y, ,Y, ,P,E,P,J,4,M,N, , , ,Y,N,N,N,N,N,N, , ,Y, ,Y,Y,Y,Y, , ,Y, , , ,Y, , , , ,Y, , , , ,Y, , , , , ,Y,N,N,N, , , , , 
177.45,-17.6,418,55530,55510,LAUTOKA HARBOR,FJ,-17.6,177.45,17,36,S,177,27,E,126,83574/0,V,CB,G,N,N,N,Y,N,K,H,M,J,2,M,Y, ,Y, ,Y,Y,Y, , ,N,Y,Y, ,Y, ,Y,Y, ,Y,Y,Y, , , , ,Y,Y,Y,N, ,Y, , , , ,Y,Y,Y,Y,Y,Y, ,Y,Y,Y, , ,C,S,S
178.416666667,-18.1333333329999,419,55540,55510,SUVA HARBOR,FJ,-18.133333,178.416667,18,8,S,178,25,E,126,83572/0,S,CN,G,N,N,N,N,N,A,E,L,L,2,L,Y,Y,Y, ,Y,Y,Y, , , ,Y,Y,Y,Y, , ,Y, ,Y, ,Y,Y, , , ,Y,Y, ,N, ,Y,Y, , , ,Y,Y, , , , ,Y,Y,Y,Y, , ,C,S, 
178.833333333,-17.683333333,420,55550,55510,LEVUKA,FJ,-17.683333,178.833333,17,41,S,178,50,E,126,83570,S,CN,G,N,N,N,Y,N,D,A,L,L,1,M,Y, ,Y,Y,Y,Y,Y, , ,N,Y,Y,Y,Y, ,Y,Y, ,Y, ,Y, , , , ,Y,Y, ,N,N,N,N,N,N,N,N,Y,N,N,N,N, ,Y, ,Y, , ,C, , 
179.366666667,-16.35,421,55556,55510,MALAI,FJ,-16.35,179.366667,16,21,S,179,22,E,126,83590,V,CB,G, , , ,Y, ,K,F,J,J,2, ,Y, , ,Y,Y,Y,Y, ,Y,N,Y,Y, ,Y, , ,Y, ,Y, ,Y,Y, , , ,Y,Y, ,N, , , , , ,Y,Y, , , , , ,Y,N,N, , , ,C, , 
179.333333333,-16.766666667,422,55560,55510,SAVUSAVU BAY,FJ,-16.766667,179.333333,16,46,S,179,20,E,126,83590,V,OR,F,N,N,N,Y,N,P,A,N, ,1,M,Y, ,Y, ,Y,Y,Y, , , , ,Y, ,Y, ,Y,Y, ,Y, ,Y,Y, , , ,Y,N, ,N, , , , , , , ,Y, , , , ,Y, ,N,N,N,N,D, , 
-175.2,-21.1333333329999,423,55590,55575,NUKU ALOFA,TO,-21.133333,-175.2,21,8,S,175,12,W,126,83567,V,CN,G,Y,Y,N,N,N,J,A,G, ,1,M,Y, ,Y,N,Y,Y,Y, ,Y,N,N, , ,Y, , ,Y,Y,Y, ,Y, , , , ,Y,Y, ,N, , , , , , , , , , , , , ,Y, ,Y, , ,C, , 
-174.35,-19.8,424,55600,55575,PANGAI,TO,-19.8,-174.35,19,48,S,174,21,W,126,83560,V,CN,F,N,N,N,Y,N,N,A,P, ,2,M, , , , ,Y, ,N, , , ,Y, , ,Y, , ,Y, , , , ,Y, , , ,Y,Y, ,N, , , , , , , , , , , , ,Y,Y,Y, , , ,C, , 
-173.983333333,-18.65,425,55610,55575,NEIAFU,TO,-18.65,-173.983333,18,39,S,173,59,W,126,83555,V,CN,G,N,N,N,Y,N,N,A,L, ,1,M,Y,Y, , ,Y,Y,Y, , ,N,Y, , ,Y, , ,Y, ,Y, ,Y,Y,Y, , ,Y,Y, ,Y,N,N,N, , , , , , , , , ,Y,Y,Y, , , , , , 
179.133333333,-8.51666666699998,426,55617,55615,FUNAFUTI ATOLL,TV,-8.516667,179.133333,8,31,S,179,8,E,126,83094,V,CN,G,Y,Y,N,Y,N,N,H,N,L,4,M,Y, ,Y,N,Y,Y,Y,Y,Y,N,N,Y, , , , ,Y, ,Y, ,Y, ,Y, , ,Y,Y, ,N, ,Y, , , , ,Y,Y, , , , , ,Y, ,Y, , ,C, , 
137.766666667,-33.016666667,427,54325,53290,PORT BONYTHON,AU,-33.016667,137.766667,33,1,S,137,46,E,175,75142,S,OR,P, , , ,Y, ,J,F, ,E,2,M,Y, ,Y, ,Y,Y,Y, ,Y,Y,Y,Y,Y, , , ,Y,Y,Y,Y,Y, , , , ,Y,N, ,N, , , , , , , , , , , , , ,N,N,N, , ,C, , 
135.85,-34.716666667,428,54350,53290,PORT LINCOLN,AU,-34.716667,135.85,34,43,S,135,51,E,175,75119,M,CB,E,N,N,N,Y, ,G,B,G,L,1,M,N, ,Y,N,Y,Y,Y, ,Y, ,Y,Y, ,Y,Y,Y,Y, ,Y,Y,Y, , , , ,Y,Y, ,Y, ,Y, , , ,Y,Y,Y, , , , , ,Y,Y, , , , , ,S
133.65,-32.166666667,429,54410,53290,THEVENARD,AU,-32.166667,133.65,32,10,S,133,39,E,175,75111,S,CN,F,N,N,N,Y,Y,L,M,K, ,1,M,Y, ,N,N,Y,Y,Y, ,N, ,Y,Y,Y, ,N, ,Y,Y,Y, ,Y, , , , ,Y,Y, ,N, , , , , , , ,Y,Y,N,N,N,Y,Y,Y,Y,N,N,C, , 
121.9,-33.8666666669999,430,54450,53290,ESPERANCE,AU,-33.866667,121.9,33,52,S,121,54,E,175,74346,V,CB,G,N,Y,N,Y, ,D,A,D,G,1,M,Y, ,Y,N,Y,Y,Y, , ,N,Y,Y,Y,Y, , ,Y,Y,Y,Y,Y, , , , ,Y,Y, ,N, ,Y, , , , ,Y,Y,Y, , , ,N,Y, ,Y,N,N,C, ,S
117.883333333,-35.033333333,431,54470,53290,ALBANY,AU,-35.033333,117.883333,35,2,S,117,53,E,175,75051,S,CN,E,Y,N,N,Y, ,J,K,J,K,1,M, ,Y,Y,N,Y,Y,Y, ,Y,N,Y,Y,Y,Y,Y,Y,Y, ,Y,Y,Y,Y, , , ,Y,Y, ,N, , , , , , , ,Y,Y, , , , ,Y, ,Y,Y,Y,C, ,M
